zipcode,name,state,county,lat,long,country,type,is_decommisioned
94538,Fremont,CA,Alameda,37.501368,-121.956753,USA,Non-Unique,
94560,Newark,CA,Alameda,37.504514,-122.032916,USA,Non-Unique,
94539,Fremont,CA,Alameda,37.516907,-121.911763,USA,Non-Unique,
94550,Livermore,CA,Alameda,37.519986,-121.575596,USA,Non-Unique,
94555,Fremont,CA,Alameda,37.548205,-122.098677,USA,Non-Unique,
94536,Fremont,CA,Alameda,37.570508,-121.98125,USA,Non-Unique,
94586,Sunol,CA,Alameda,37.57459,-121.853708,USA,Non-Unique,
94587,Union City,CA,Alameda,37.603155,-122.018638,USA,Non-Unique,
94545,Hayward,CA,Alameda,37.605905,-122.126873,USA,Non-Unique,
94544,Hayward,CA,Alameda,37.63382,-122.0572,USA,Non-Unique,
94566,Pleasanton,CA,Alameda,37.648104,-121.849965,USA,Non-Unique,
94542,Hayward,CA,Alameda,37.659883,-122.037142,USA,Non-Unique,
94541,Hayward,CA,Alameda,37.673945,-122.084821,USA,Non-Unique,
94580,San Lorenzo,CA,Alameda,37.675731,-122.133017,USA,Non-Unique,
94537,Fremont,CA,Alameda,37.680181,-121.921498,USA,PO Box,
94540,Hayward,CA,Alameda,37.680181,-121.921498,USA,PO Box,
94543,Hayward,CA,Alameda,37.680181,-121.921498,USA,PO Box,
94557,Hayward,CA,Alameda,37.680181,-121.921498,USA,PO Box,
94604,Oakland,CA,Alameda,37.680181,-121.921498,USA,PO Box,
94620,Piedmont,CA,Alameda,37.680181,-121.921498,USA,PO Box,
94623,Oakland,CA,Alameda,37.680181,-121.921498,USA,PO Box,
94624,Oakland,CA,Alameda,37.680181,-121.921498,USA,PO Box,
94649,Oakland,CA,Alameda,37.680181,-121.921498,USA,Unique,
94659,Oakland,CA,Alameda,37.680181,-121.921498,USA,Unique,
94660,Oakland,CA,Alameda,37.680181,-121.921498,USA,Unique,
94661,Oakland,CA,Alameda,37.680181,-121.921498,USA,PO Box,
94662,Emeryville,CA,Alameda,37.680181,-121.921498,USA,PO Box,
94666,Oakland,CA,Alameda,37.680181,-121.921498,USA,Unique,
94712,Berkeley,CA,Alameda,37.680181,-121.921498,USA,PO Box,
94579,San Leandro,CA,Alameda,37.686491,-122.157201,USA,Non-Unique,
94578,San Leandro,CA,Alameda,37.706137,-122.12555,USA,Non-Unique,
94577,San Leandro,CA,Alameda,37.713275,-122.16735,USA,Non-Unique,
94546,Castro Valley,CA,Alameda,37.714509,-122.079542,USA,Non-Unique,
94568,Dublin,CA,Alameda,37.715245,-121.9147,USA,Non-Unique,
94552,Castro Valley,CA,Alameda,37.72272,-122.021552,USA,Non-Unique,
94614,Oakland,CA,Alameda,37.727739,-122.204573,USA,PO Box,
94603,Oakland,CA,Alameda,37.736529,-122.179445,USA,Non-Unique,
94502,Alameda,CA,Alameda,37.737572,-122.245507,USA,Non-Unique,
94621,Oakland,CA,Alameda,37.748272,-122.216825,USA,Non-Unique,
94551,Livermore,CA,Alameda,37.750502,-121.749055,USA,Non-Unique,
94605,Oakland,CA,Alameda,37.761408,-122.150198,USA,Non-Unique,
94501,Alameda,CA,Alameda,37.773793,-122.278115,USA,Non-Unique,
94601,Oakland,CA,Alameda,37.775545,-122.218705,USA,Non-Unique,
94613,Oakland,CA,Alameda,37.780853,-122.182845,USA,Non-Unique,
94619,Oakland,CA,Alameda,37.790438,-122.140819,USA,Non-Unique,
94606,Oakland,CA,Alameda,37.791887,-122.245334,USA,Non-Unique,
94588,Pleasanton,CA,Alameda,37.792682,-121.86059,USA,Non-Unique,
94602,Oakland,CA,Alameda,37.80432,-122.207545,USA,Non-Unique,
94622,Oakland,CA,Alameda,37.804372,-122.270803,USA,Unique,
94615,Oakland,CA,Alameda,37.806677,-122.30038,USA,Non-Unique,
94607,Oakland,CA,Alameda,37.807215,-122.301497,USA,Non-Unique,
94617,Oakland,CA,Alameda,37.807827,-122.271652,USA,Non-Unique,
94612,Oakland,CA,Alameda,37.8088,-122.269196,USA,Non-Unique,
94610,Oakland,CA,Alameda,37.811406,-122.242458,USA,Non-Unique,
94611,Oakland,CA,Alameda,37.82935,-122.203507,USA,Non-Unique,
94609,Oakland,CA,Alameda,37.834403,-122.264368,USA,Non-Unique,
94608,Emeryville,CA,Alameda,37.836844,-122.289143,USA,Non-Unique,
94618,Oakland,CA,Alameda,37.844672,-122.238105,USA,Non-Unique,
94701,Berkeley,CA,Alameda,37.860576,-122.29673,USA,PO Box,
94703,Berkeley,CA,Alameda,37.863911,-122.275643,USA,Non-Unique,
94710,Berkeley,CA,Alameda,37.863914,-122.306465,USA,Non-Unique,
94705,Berkeley,CA,Alameda,37.865183,-122.238209,USA,Non-Unique,
94702,Berkeley,CA,Alameda,37.865777,-122.286321,USA,Non-Unique,
94704,Berkeley,CA,Alameda,37.866536,-122.257996,USA,Non-Unique,
94720,Berkeley,CA,Alameda,37.873832,-122.254944,USA,Non-Unique,
94709,Berkeley,CA,Alameda,37.879234,-122.266839,USA,Non-Unique,
94706,Albany,CA,Alameda,37.889704,-122.295531,USA,Non-Unique,
94707,Berkeley,CA,Alameda,37.898189,-122.27913,USA,Non-Unique,
95646,Kirkwood,CA,Alpine,38.6926,-120.05238,USA,PO Box,
96120,Markleeville,CA,Alpine,38.771319,-119.832669,USA,Non-Unique,
95640,Ione,CA,Amador,38.340647,-120.91473,USA,Non-Unique,
95642,Jackson,CA,Amador,38.366959,-120.763365,USA,Non-Unique,
95665,Pine Grove,CA,Amador,38.4038,-120.668334,USA,Non-Unique,
95601,Amador City,CA,Amador,38.41936,-120.8241,USA,PO Box,
95666,Pioneer,CA,Amador,38.43186,-120.57187,USA,Non-Unique,
95685,Sutter Creek,CA,Amador,38.436584,-120.742839,USA,Non-Unique,
95699,Drytown,CA,Amador,38.437001,-120.845706,USA,PO Box,
95689,Volcano,CA,Amador,38.44297,-120.63076,USA,Non-Unique,
95644,Kit Carson,CA,Amador,38.463282,-120.550021,USA,PO Box,
95654,Martell,CA,Amador,38.463282,-120.550021,USA,PO Box,
95669,Plymouth,CA,Amador,38.486559,-120.86184,USA,Non-Unique,
95629,Fiddletown,CA,Amador,38.510343,-120.708029,USA,Non-Unique,
95675,River Pines,CA,Amador,38.544557,-120.74279,USA,PO Box,
95948,Gridley,CA,Butte,39.355492,-121.724685,USA,Non-Unique,
95914,Bangor,CA,Butte,39.3885,-121.40524,USA,Non-Unique,
95917,Biggs,CA,Butte,39.40672,-121.753522,USA,Non-Unique,
95968,Palermo,CA,Butte,39.43544,-121.53802,USA,Non-Unique,
95966,Oroville,CA,Butte,39.463113,-121.417372,USA,Non-Unique,
95974,Richvale,CA,Butte,39.480222,-121.838454,USA,PO Box,
95941,Forbestown,CA,Butte,39.528374,-121.265237,USA,Non-Unique,
95930,Clipper Mills,CA,Butte,39.543835,-121.220469,USA,Non-Unique,
95958,Nelson,CA,Butte,39.556251,-121.803777,USA,PO Box,
95965,Oroville,CA,Butte,39.578352,-121.58212,USA,Non-Unique,
95940,Feather Falls,CA,Butte,39.585648,-121.259009,USA,PO Box,
95938,Durham,CA,Butte,39.626362,-121.777546,USA,Non-Unique,
95916,Berry Creek,CA,Butte,39.653813,-121.383744,USA,Non-Unique,
95969,Paradise,CA,Butte,39.654279,-121.707265,USA,Non-Unique,
95928,Chico,CA,Butte,39.687626,-121.799166,USA,Non-Unique,
95967,Paradise,CA,Butte,39.723898,-121.572986,USA,PO Box,
95976,Chico,CA,Butte,39.723898,-121.572986,USA,Unique,
95929,Chico,CA,Butte,39.731406,-121.801215,USA,Unique,
95926,Chico,CA,Butte,39.746159,-121.840083,USA,Non-Unique,
95927,Chico,CA,Butte,39.805255,-121.684124,USA,PO Box,
95973,Chico,CA,Butte,39.837577,-121.869949,USA,Non-Unique,
95954,Magalia,CA,Butte,39.867959,-121.599628,USA,Non-Unique,
95978,Stirling City,CA,Butte,39.875599,-121.536315,USA,PO Box,
95942,Forest Ranch,CA,Butte,39.88211,-121.67275,USA,Non-Unique,
95228,Copperopolis,CA,Calaveras,37.971877,-120.649912,USA,Non-Unique,
95222,Angels Camp,CA,Calaveras,38.052816,-120.618608,USA,Non-Unique,
95251,Vallecito,CA,Calaveras,38.085205,-120.471841,USA,Non-Unique,
95221,Altaville,CA,Calaveras,38.092294,-120.535316,USA,PO Box,
95229,Douglas Flat,CA,Calaveras,38.110355,-120.45436,USA,PO Box,
95247,Murphys,CA,Calaveras,38.131035,-120.454381,USA,Non-Unique,
95233,Hathaway Pines,CA,Calaveras,38.183537,-120.388215,USA,PO Box,
95252,Valley Springs,CA,Calaveras,38.18371,-120.81502,USA,Non-Unique,
95249,San Andreas,CA,Calaveras,38.190106,-120.616052,USA,Non-Unique,
95225,Burson,CA,Calaveras,38.191258,-120.910251,USA,PO Box,
95254,Wallace,CA,Calaveras,38.19783,-120.95854,USA,PO Box,
95226,Campo Seco,CA,Calaveras,38.211495,-120.849106,USA,PO Box,
95224,Avery,CA,Calaveras,38.217249,-120.377348,USA,PO Box,
95246,Mountain Ranch,CA,Calaveras,38.25085,-120.51189,USA,Non-Unique,
95245,Mokelumne Hill,CA,Calaveras,38.29138,-120.571875,USA,Non-Unique,
95248,Rail Road Flat,CA,Calaveras,38.325626,-120.485154,USA,PO Box,
95223,Arnold,CA,Calaveras,38.328969,-120.223837,USA,Non-Unique,
95232,Glencoe,CA,Calaveras,38.352793,-120.573947,USA,Non-Unique,
95257,Wilseyville,CA,Calaveras,38.37908,-120.51465,USA,Non-Unique,
95255,West Point,CA,Calaveras,38.403007,-120.477467,USA,Non-Unique,
95912,Arbuckle,CA,Colusa,39.0134,-121.996852,USA,Non-Unique,
95950,Grimes,CA,Colusa,39.065895,-121.908208,USA,PO Box,
95987,Williams,CA,Colusa,39.142737,-122.243739,USA,Non-Unique,
95932,Colusa,CA,Colusa,39.21433,-122.00942,USA,Non-Unique,
95979,Stonyford,CA,Colusa,39.28207,-122.431045,USA,Non-Unique,
95955,Maxwell,CA,Colusa,39.2847,-122.210089,USA,Non-Unique,
95970,Princeton,CA,Colusa,39.379166,-122.095709,USA,Non-Unique,
94583,San Ramon,CA,Contra Costa,37.75512,-121.972699,USA,Non-Unique,
94582,San Ramon,CA,Contra Costa,37.762174,-121.915788,USA,Non-Unique,
94522,Concord,CA,Contra Costa,37.777208,-121.955399,USA,PO Box,
94524,Concord,CA,Contra Costa,37.777208,-121.955399,USA,PO Box,
94529,Concord,CA,Contra Costa,37.777208,-121.955399,USA,Unique,
94570,Moraga,CA,Contra Costa,37.777208,-121.955399,USA,PO Box,
94802,Richmond,CA,Contra Costa,37.777208,-121.955399,USA,PO Box,
94807,Richmond,CA,Contra Costa,37.777208,-121.955399,USA,PO Box,
94808,Richmond,CA,Contra Costa,37.777208,-121.955399,USA,PO Box,
94820,El Sobrante,CA,Contra Costa,37.777208,-121.955399,USA,PO Box,
94506,Danville,CA,Contra Costa,37.809677,-121.913141,USA,Non-Unique,
94526,Danville,CA,Contra Costa,37.814613,-121.990552,USA,Non-Unique,
94514,Byron,CA,Contra Costa,37.826372,-121.622546,USA,Non-Unique,
94516,Canyon,CA,Contra Costa,37.833901,-122.165034,USA,PO Box,
94556,Moraga,CA,Contra Costa,37.840645,-122.114877,USA,Non-Unique,
94575,Moraga,CA,Contra Costa,37.840961,-122.109502,USA,PO Box,
94528,Diablo,CA,Contra Costa,37.845601,-121.950612,USA,Non-Unique,
94507,Alamo,CA,Contra Costa,37.850411,-122.021124,USA,Non-Unique,
94505,Discovery Bay,CA,Contra Costa,37.87168,-121.597066,USA,Non-Unique,
94595,Walnut Creek,CA,Contra Costa,37.87195,-122.069383,USA,Non-Unique,
94563,Orinda,CA,Contra Costa,37.87992,-122.184572,USA,Non-Unique,
94596,Walnut Creek,CA,Contra Costa,37.889098,-122.037553,USA,Non-Unique,
94517,Clayton,CA,Contra Costa,37.890217,-121.878354,USA,Non-Unique,
94549,Lafayette,CA,Contra Costa,37.897009,-122.114292,USA,Non-Unique,
94598,Walnut Creek,CA,Contra Costa,37.899936,-121.999244,USA,Non-Unique,
94850,Richmond,CA,Contra Costa,37.902226,-122.317378,USA,Non-Unique,
94708,Berkeley,CA,Contra Costa,37.902944,-122.261795,USA,Non-Unique,
94804,Richmond,CA,Contra Costa,37.916555,-122.341233,USA,Non-Unique,
94597,Walnut Creek,CA,Contra Costa,37.918191,-122.071665,USA,Non-Unique,
94530,El Cerrito,CA,Contra Costa,37.921561,-122.298337,USA,Non-Unique,
94513,Brentwood,CA,Contra Costa,37.922228,-121.668359,USA,Non-Unique,
94805,Richmond,CA,Contra Costa,37.942798,-122.322923,USA,Non-Unique,
94518,Concord,CA,Contra Costa,37.950362,-122.022039,USA,Non-Unique,
94801,Richmond,CA,Contra Costa,37.952844,-122.381974,USA,Non-Unique,
94527,Concord,CA,Contra Costa,37.953542,-121.957778,USA,PO Box,
94523,Pleasant Hill,CA,Contra Costa,37.954131,-122.07614,USA,Non-Unique,
94521,Concord,CA,Contra Costa,37.956012,-121.956194,USA,Non-Unique,
94803,El Sobrante,CA,Contra Costa,37.959549,-122.283578,USA,Non-Unique,
94531,Antioch,CA,Contra Costa,37.965765,-121.775818,USA,Non-Unique,
94548,Knightsen,CA,Contra Costa,37.974295,-121.651441,USA,Non-Unique,
94806,San Pablo,CA,Contra Costa,37.98079,-122.337627,USA,Non-Unique,
94519,Concord,CA,Contra Costa,37.988451,-122.013001,USA,Non-Unique,
94553,Martinez,CA,Contra Costa,37.993892,-122.136441,USA,Non-Unique,
94561,Oakley,CA,Contra Costa,37.993936,-121.691139,USA,Non-Unique,
94564,Pinole,CA,Contra Costa,37.994038,-122.282589,USA,Non-Unique,
94520,Concord,CA,Contra Costa,37.995285,-122.040627,USA,Non-Unique,
94509,Antioch,CA,Contra Costa,37.996501,-121.812301,USA,Non-Unique,
94547,Hercules,CA,Contra Costa,38.010166,-122.261728,USA,Non-Unique,
94565,Pittsburg,CA,Contra Costa,38.014576,-121.906255,USA,Non-Unique,
94511,Bethel Island,CA,Contra Costa,38.028939,-121.640521,USA,PO Box,
94572,Rodeo,CA,Contra Costa,38.032793,-122.252211,USA,Non-Unique,
94569,Port Costa,CA,Contra Costa,38.044258,-122.198765,USA,Non-Unique,
94525,Crockett,CA,Contra Costa,38.052951,-122.232094,USA,Non-Unique,
95548,Klamath,CA,Del Norte,41.609872,-124.054355,USA,Non-Unique,
95531,Crescent City,CA,Del Norte,41.819578,-124.065667,USA,Non-Unique,
95532,Crescent City,CA,Del Norte,41.852985,-124.15721,USA,Unique,
95538,Fort Dick,CA,Del Norte,41.892473,-124.145734,USA,PO Box,
95543,Gasquet,CA,Del Norte,41.912328,-123.810269,USA,Non-Unique,
95567,Smith River,CA,Del Norte,41.925977,-124.159812,USA,Non-Unique,
95656,Mount Aukum,CA,El Dorado,38.54723,-120.707891,USA,PO Box,
95636,Grizzly Flats,CA,El Dorado,38.63765,-120.553399,USA,Non-Unique,
95684,Somerset,CA,El Dorado,38.639336,-120.599848,USA,Non-Unique,
95682,Shingle Springs,CA,El Dorado,38.67018,-120.9421,USA,Non-Unique,
95623,El Dorado,CA,El Dorado,38.676272,-120.84598,USA,Non-Unique,
95619,Diamond Springs,CA,El Dorado,38.68208,-120.82209,USA,Non-Unique,
95762,El Dorado Hills,CA,El Dorado,38.686847,-121.044846,USA,Non-Unique,
95672,Rescue,CA,El Dorado,38.718327,-120.994305,USA,Non-Unique,
95667,Placerville,CA,El Dorado,38.730224,-120.797149,USA,Non-Unique,
95709,Camino,CA,El Dorado,38.745549,-120.693072,USA,Non-Unique,
96155,South Lake Tahoe,CA,El Dorado,38.747069,-120.088361,USA,PO Box,
95726,Pollock Pines,CA,El Dorado,38.766276,-120.481278,USA,Non-Unique,
95720,Kyburz,CA,El Dorado,38.77463,-120.29686,USA,Non-Unique,
95651,Lotus,CA,El Dorado,38.80157,-120.90855,USA,Non-Unique,
95735,Twin Bridges,CA,El Dorado,38.802139,-120.140714,USA,Non-Unique,
95613,Coloma,CA,El Dorado,38.81419,-120.895188,USA,PO Box,
95664,Pilot Hill,CA,El Dorado,38.81823,-121.02967,USA,Non-Unique,
95721,Echo Lake,CA,El Dorado,38.83074,-120.055163,USA,Non-Unique,
95633,Garden Valley,CA,El Dorado,38.854672,-120.830282,USA,Non-Unique,
96154,South Lake Tahoe,CA,El Dorado,38.87529,-120.0188,USA,PO Box,
95614,Cool,CA,El Dorado,38.877956,-120.986029,USA,Non-Unique,
96158,South Lake Tahoe,CA,El Dorado,38.898142,-119.998419,USA,PO Box,
96151,South Lake Tahoe,CA,El Dorado,38.90392,-119.995024,USA,PO Box,
95635,Greenwood,CA,El Dorado,38.909448,-120.889138,USA,Non-Unique,
95634,Georgetown,CA,El Dorado,38.924378,-120.703303,USA,Non-Unique,
96152,South Lake Tahoe,CA,El Dorado,38.927149,-119.999032,USA,PO Box,
96150,South Lake Tahoe,CA,El Dorado,38.927507,-120.039632,USA,Non-Unique,
96157,South Lake Tahoe,CA,El Dorado,38.934409,-119.976707,USA,PO Box,
96156,South Lake Tahoe,CA,El Dorado,38.935245,-119.967631,USA,PO Box,
93234,Huron,CA,Fresno,36.207165,-120.103363,USA,Non-Unique,
93210,Coalinga,CA,Fresno,36.247025,-120.381432,USA,Non-Unique,
93624,Five Points,CA,Fresno,36.33859,-120.111796,USA,PO Box,
93242,Laton,CA,Fresno,36.445649,-119.696386,USA,Non-Unique,
93656,Riverdale,CA,Fresno,36.466514,-119.97768,USA,Non-Unique,
93608,Cantua Creek,CA,Fresno,36.50005,-120.31637,USA,Non-Unique,
93609,Caruthers,CA,Fresno,36.53993,-119.8449,USA,Non-Unique,
93662,Selma,CA,Fresno,36.57078,-119.61208,USA,Non-Unique,
93627,Helm,CA,Fresno,36.574499,-120.066008,USA,Non-Unique,
93607,Burrel,CA,Fresno,36.589797,-119.899405,USA,PO Box,
93652,Raisin City,CA,Fresno,36.591897,-119.902728,USA,Non-Unique,
93660,San Joaquin,CA,Fresno,36.60662,-120.18904,USA,Non-Unique,
93648,Parlier,CA,Fresno,36.61162,-119.52707,USA,Non-Unique,
93725,Fresno,CA,Fresno,36.620698,-119.730824,USA,Non-Unique,
93625,Fowler,CA,Fresno,36.623402,-119.691869,USA,Non-Unique,
93668,Tranquillity,CA,Fresno,36.632595,-120.282776,USA,Non-Unique,
93706,Fresno,CA,Fresno,36.648635,-119.998749,USA,Non-Unique,
93616,Del Rey,CA,Fresno,36.6524,-119.592015,USA,Non-Unique,
93654,Reedley,CA,Fresno,36.669807,-119.398857,USA,Non-Unique,
93675,Squaw Valley,CA,Fresno,36.69447,-119.2001,USA,Non-Unique,
93641,Miramonte,CA,Fresno,36.698964,-119.049219,USA,Non-Unique,
93657,Sanger,CA,Fresno,36.70801,-119.55597,USA,Non-Unique,
93630,Kerman,CA,Fresno,36.72356,-120.05988,USA,Non-Unique,
93721,Fresno,CA,Fresno,36.732892,-119.783739,USA,Non-Unique,
93633,Kings Canyon National Pk,CA,Fresno,36.734947,-118.956496,USA,Non-Unique,
93621,Dunlap,CA,Fresno,36.73828,-119.12095,USA,Non-Unique,
93702,Fresno,CA,Fresno,36.739193,-119.753932,USA,Non-Unique,
93642,Mono Hot Springs,CA,Fresno,36.746375,-119.639658,USA,PO Box,
93707,Fresno,CA,Fresno,36.746375,-119.639658,USA,PO Box,
93708,Fresno,CA,Fresno,36.746375,-119.639658,USA,PO Box,
93709,Fresno,CA,Fresno,36.746375,-119.639658,USA,PO Box,
93712,Fresno,CA,Fresno,36.746375,-119.639658,USA,PO Box,
93714,Fresno,CA,Fresno,36.746375,-119.639658,USA,PO Box,
93715,Fresno,CA,Fresno,36.746375,-119.639658,USA,PO Box,
93716,Fresno,CA,Fresno,36.746375,-119.639658,USA,PO Box,
93717,Fresno,CA,Fresno,36.746375,-119.639658,USA,PO Box,
93718,Fresno,CA,Fresno,36.746375,-119.639658,USA,PO Box,
93724,Fresno,CA,Fresno,36.746375,-119.639658,USA,Unique,
93729,Fresno,CA,Fresno,36.746375,-119.639658,USA,PO Box,
93740,Fresno,CA,Fresno,36.746375,-119.639658,USA,Unique,
93741,Fresno,CA,Fresno,36.746375,-119.639658,USA,Non-Unique,
93744,Fresno,CA,Fresno,36.746375,-119.639658,USA,PO Box,
93745,Fresno,CA,Fresno,36.746375,-119.639658,USA,PO Box,
93747,Fresno,CA,Fresno,36.746375,-119.639658,USA,PO Box,
93750,Fresno,CA,Fresno,36.746375,-119.639658,USA,Unique,
93755,Fresno,CA,Fresno,36.746375,-119.639658,USA,PO Box,
93760,Fresno,CA,Fresno,36.746375,-119.639658,USA,Unique,
93761,Fresno,CA,Fresno,36.746375,-119.639658,USA,Unique,
93764,Fresno,CA,Fresno,36.746375,-119.639658,USA,Unique,
93765,Fresno,CA,Fresno,36.746375,-119.639658,USA,Unique,
93771,Fresno,CA,Fresno,36.746375,-119.639658,USA,PO Box,
93772,Fresno,CA,Fresno,36.746375,-119.639658,USA,PO Box,
93773,Fresno,CA,Fresno,36.746375,-119.639658,USA,PO Box,
93774,Fresno,CA,Fresno,36.746375,-119.639658,USA,PO Box,
93775,Fresno,CA,Fresno,36.746375,-119.639658,USA,PO Box,
93776,Fresno,CA,Fresno,36.746375,-119.639658,USA,PO Box,
93777,Fresno,CA,Fresno,36.746375,-119.639658,USA,PO Box,
93778,Fresno,CA,Fresno,36.746375,-119.639658,USA,PO Box,
93779,Fresno,CA,Fresno,36.746375,-119.639658,USA,PO Box,
93786,Fresno,CA,Fresno,36.746375,-119.639658,USA,Unique,
93790,Fresno,CA,Fresno,36.746375,-119.639658,USA,PO Box,
93791,Fresno,CA,Fresno,36.746375,-119.639658,USA,PO Box,
93792,Fresno,CA,Fresno,36.746375,-119.639658,USA,PO Box,
93793,Fresno,CA,Fresno,36.746375,-119.639658,USA,PO Box,
93794,Fresno,CA,Fresno,36.746375,-119.639658,USA,PO Box,
93844,Fresno,CA,Fresno,36.746375,-119.639658,USA,Unique,
93888,Fresno,CA,Fresno,36.746375,-119.639658,USA,Unique,
93737,Fresno,CA,Fresno,36.747727,-119.772366,USA,Non-Unique,
93701,Fresno,CA,Fresno,36.74966,-119.787684,USA,Non-Unique,
93628,Hume,CA,Fresno,36.751546,-118.957494,USA,Non-Unique,
93640,Mendota,CA,Fresno,36.75356,-120.38156,USA,Non-Unique,
93728,Fresno,CA,Fresno,36.756348,-119.817429,USA,Non-Unique,
93727,Fresno,CA,Fresno,36.763149,-119.673272,USA,Non-Unique,
93703,Fresno,CA,Fresno,36.768449,-119.761076,USA,Non-Unique,
93705,Fresno,CA,Fresno,36.786672,-119.828335,USA,Non-Unique,
93723,Fresno,CA,Fresno,36.793477,-119.956818,USA,Non-Unique,
93726,Fresno,CA,Fresno,36.793661,-119.761461,USA,Non-Unique,
93704,Fresno,CA,Fresno,36.799054,-119.801608,USA,Non-Unique,
93722,Fresno,CA,Fresno,36.799361,-119.874794,USA,Non-Unique,
93606,Biola,CA,Fresno,36.80217,-120.01627,USA,PO Box,
93612,Clovis,CA,Fresno,36.814863,-119.710595,USA,Non-Unique,
93710,Fresno,CA,Fresno,36.822348,-119.760241,USA,Non-Unique,
93611,Clovis,CA,Fresno,36.825296,-119.68019,USA,Non-Unique,
93711,Fresno,CA,Fresno,36.830336,-119.82824,USA,Non-Unique,
93650,Fresno,CA,Fresno,36.8411,-119.801015,USA,Non-Unique,
93649,Piedra,CA,Fresno,36.841665,-119.349639,USA,PO Box,
93622,Firebaugh,CA,Fresno,36.85884,-120.45601,USA,Non-Unique,
93720,Fresno,CA,Fresno,36.862209,-119.760793,USA,Non-Unique,
93619,Clovis,CA,Fresno,36.862603,-119.734947,USA,Non-Unique,
93730,Fresno,CA,Fresno,36.900387,-119.754143,USA,Non-Unique,
93667,Tollhouse,CA,Fresno,36.964156,-119.370436,USA,Non-Unique,
93651,Prather,CA,Fresno,37.008796,-119.512686,USA,Non-Unique,
93613,Clovis,CA,Fresno,37.036529,-119.511704,USA,PO Box,
93602,Auberry,CA,Fresno,37.07545,-119.49005,USA,Non-Unique,
93664,Shaver Lake,CA,Fresno,37.098774,-119.166093,USA,Non-Unique,
93605,Big Creek,CA,Fresno,37.20495,-119.24596,USA,PO Box,
93634,Lakeshore,CA,Fresno,37.253,-119.17484,USA,PO Box,
95920,Butte City,CA,Glenn,39.458507,-121.934145,USA,Non-Unique,
95988,Willows,CA,Glenn,39.519386,-122.292996,USA,Non-Unique,
95939,Elk Creek,CA,Glenn,39.54842,-122.567428,USA,Non-Unique,
95943,Glenn,CA,Glenn,39.596546,-122.032181,USA,Non-Unique,
95913,Artois,CA,Glenn,39.698298,-122.168928,USA,PO Box,
95951,Hamilton City,CA,Glenn,39.728209,-122.053823,USA,Non-Unique,
95963,Orland,CA,Glenn,39.74738,-122.19637,USA,Non-Unique,
95589,Whitethorn,CA,Humboldt,40.02376,-123.94308,USA,Non-Unique,
95542,Garberville,CA,Humboldt,40.080405,-123.783948,USA,Non-Unique,
95560,Redway,CA,Humboldt,40.12085,-123.82205,USA,Non-Unique,
95511,Alderpoint,CA,Humboldt,40.13049,-123.602161,USA,Non-Unique,
95559,Phillipsville,CA,Humboldt,40.20903,-123.78587,USA,PO Box,
95553,Miranda,CA,Humboldt,40.23548,-123.845935,USA,PO Box,
95554,Myers Flat,CA,Humboldt,40.262278,-123.81444,USA,Non-Unique,
95545,Honeydew,CA,Humboldt,40.280389,-124.06367,USA,PO Box,
95558,Petrolia,CA,Humboldt,40.303424,-124.21441,USA,Non-Unique,
95514,Blocksburg,CA,Humboldt,40.318601,-123.672124,USA,Non-Unique,
95571,Weott,CA,Humboldt,40.32181,-123.92171,USA,PO Box,
95569,Redcrest,CA,Humboldt,40.36547,-123.895246,USA,Non-Unique,
95536,Ferndale,CA,Humboldt,40.465229,-124.26879,USA,Non-Unique,
95562,Rio Dell,CA,Humboldt,40.472423,-124.12184,USA,Non-Unique,
95565,Scotia,CA,Humboldt,40.48236,-124.10088,USA,Non-Unique,
95526,Bridgeville,CA,Humboldt,40.484837,-123.753321,USA,Non-Unique,
95528,Carlotta,CA,Humboldt,40.501603,-123.952838,USA,Non-Unique,
95547,Hydesville,CA,Humboldt,40.548691,-124.09898,USA,Non-Unique,
95540,Fortuna,CA,Humboldt,40.59819,-124.15728,USA,Non-Unique,
95549,Kneeland,CA,Humboldt,40.647049,-123.913353,USA,Non-Unique,
95551,Loleta,CA,Humboldt,40.665179,-124.239192,USA,Non-Unique,
95537,Fields Landing,CA,Humboldt,40.72533,-124.21666,USA,PO Box,
95502,Eureka,CA,Humboldt,40.733552,-123.944021,USA,PO Box,
95534,Cutten,CA,Humboldt,40.733552,-123.944021,USA,PO Box,
95503,Eureka,CA,Humboldt,40.737431,-124.108897,USA,Non-Unique,
95550,Korbel,CA,Humboldt,40.768799,-123.859218,USA,Non-Unique,
95564,Samoa,CA,Humboldt,40.795138,-124.199568,USA,Non-Unique,
95501,Eureka,CA,Humboldt,40.798802,-124.15192,USA,Non-Unique,
95524,Bayside,CA,Humboldt,40.823396,-124.041746,USA,Non-Unique,
95521,Arcata,CA,Humboldt,40.855672,-124.06672,USA,Non-Unique,
95573,Willow Creek,CA,Humboldt,40.87481,-123.65987,USA,Non-Unique,
95518,Arcata,CA,Humboldt,40.881383,-123.984232,USA,PO Box,
95563,Salyer,CA,Humboldt,40.89013,-123.58449,USA,Non-Unique,
95519,Mckinleyville,CA,Humboldt,40.959368,-124.051236,USA,Non-Unique,
95525,Blue Lake,CA,Humboldt,40.961876,-123.88501,USA,Non-Unique,
95546,Hoopa,CA,Humboldt,41.05041,-123.67422,USA,Non-Unique,
95570,Trinidad,CA,Humboldt,41.05929,-124.14312,USA,Non-Unique,
95555,Orick,CA,Humboldt,41.291871,-124.060455,USA,Non-Unique,
95556,Orleans,CA,Humboldt,41.304908,-123.557541,USA,Non-Unique,
92231,Calexico,CA,Imperial,32.68755,-115.541,USA,Non-Unique,
92249,Heber,CA,Imperial,32.72181,-115.438271,USA,Non-Unique,
92259,Ocotillo,CA,Imperial,32.74309,-116.00189,USA,Non-Unique,
92243,El Centro,CA,Imperial,32.770275,-115.598602,USA,Non-Unique,
92222,Bard,CA,Imperial,32.78921,-114.55606,USA,PO Box,
92273,Seeley,CA,Imperial,32.79413,-115.694768,USA,PO Box,
92244,El Centro,CA,Imperial,32.79475,-115.692714,USA,PO Box,
92251,Imperial,CA,Imperial,32.84755,-115.56944,USA,Non-Unique,
92250,Holtville,CA,Imperial,32.867317,-115.374769,USA,Non-Unique,
92283,Winterhaven,CA,Imperial,32.981774,-114.685417,USA,Non-Unique,
92232,Calexico,CA,Imperial,33.026203,-115.284581,USA,PO Box,
92281,Westmorland,CA,Imperial,33.037976,-115.591387,USA,Non-Unique,
92227,Brawley,CA,Imperial,33.096382,-115.280168,USA,Non-Unique,
92233,Calipatria,CA,Imperial,33.157664,-115.510284,USA,Non-Unique,
92257,Niland,CA,Imperial,33.23878,-115.51457,USA,Non-Unique,
92275,Salton City,CA,Imperial,33.309217,-115.957782,USA,PO Box,
92266,Palo Verde,CA,Imperial,33.369594,-114.735544,USA,PO Box,
92274,Thermal,CA,Imperial,33.5578,-116.157152,USA,Non-Unique,
92389,Tecopa,CA,Inyo,35.83515,-116.20753,USA,Non-Unique,
93592,Trona,CA,Inyo,35.852815,-117.224709,USA,PO Box,
92384,Shoshone,CA,Inyo,35.977703,-116.270561,USA,Non-Unique,
93549,Olancha,CA,Inyo,36.229962,-117.955189,USA,PO Box,
93522,Darwin,CA,Inyo,36.2688,-117.589,USA,PO Box,
92328,Death Valley,CA,Inyo,36.4555,-116.86755,USA,Non-Unique,
93530,Keeler,CA,Inyo,36.488612,-117.874104,USA,PO Box,
93545,Lone Pine,CA,Inyo,36.57696,-118.07813,USA,Non-Unique,
93515,Bishop,CA,Inyo,36.626033,-117.218616,USA,PO Box,
93542,Little Lake,CA,Inyo,36.626033,-117.218616,USA,PO Box,
93526,Independence,CA,Inyo,36.831167,-118.235097,USA,Non-Unique,
93513,Big Pine,CA,Inyo,37.169602,-118.294915,USA,Non-Unique,
93225,Frazier Park,CA,Kern,34.768537,-119.030293,USA,Non-Unique,
93222,Pine Mountain Club,CA,Kern,34.842272,-119.20368,USA,PO Box,
93560,Rosamond,CA,Kern,34.86576,-118.21547,USA,Non-Unique,
93524,Edwards,CA,Kern,34.931987,-117.907127,USA,Non-Unique,
93523,Edwards,CA,Kern,34.960825,-117.835384,USA,Non-Unique,
93516,Boron,CA,Kern,35.002282,-117.629941,USA,Non-Unique,
93501,Mojave,CA,Kern,35.038066,-118.31596,USA,Non-Unique,
93502,Mojave,CA,Kern,35.068161,-118.224785,USA,PO Box,
93561,Tehachapi,CA,Kern,35.118772,-118.493811,USA,Non-Unique,
93268,Taft,CA,Kern,35.14247,-119.45651,USA,Non-Unique,
93505,California City,CA,Kern,35.144767,-117.897202,USA,Non-Unique,
93313,Bakersfield,CA,Kern,35.16319,-119.046322,USA,Non-Unique,
93224,Fellows,CA,Kern,35.17818,-119.54755,USA,Non-Unique,
93504,California City,CA,Kern,35.187133,-117.885359,USA,PO Box,
93311,Bakersfield,CA,Kern,35.192404,-119.175866,USA,Non-Unique,
93203,Arvin,CA,Kern,35.20913,-118.82843,USA,Non-Unique,
93531,Keene,CA,Kern,35.226499,-118.581032,USA,Non-Unique,
93307,Bakersfield,CA,Kern,35.24512,-118.9411,USA,Non-Unique,
93241,Lamont,CA,Kern,35.26512,-118.91587,USA,Non-Unique,
93518,Caliente,CA,Kern,35.29107,-118.62787,USA,Non-Unique,
93216,Delano,CA,Kern,35.294405,-118.905173,USA,PO Box,
93302,Bakersfield,CA,Kern,35.294405,-118.905173,USA,PO Box,
93303,Bakersfield,CA,Kern,35.294405,-118.905173,USA,PO Box,
93380,Bakersfield,CA,Kern,35.294405,-118.905173,USA,PO Box,
93383,Bakersfield,CA,Kern,35.294405,-118.905173,USA,PO Box,
93384,Bakersfield,CA,Kern,35.294405,-118.905173,USA,PO Box,
93385,Bakersfield,CA,Kern,35.294405,-118.905173,USA,PO Box,
93386,Bakersfield,CA,Kern,35.294405,-118.905173,USA,PO Box,
93387,Bakersfield,CA,Kern,35.294405,-118.905173,USA,PO Box,
93388,Bakersfield,CA,Kern,35.294405,-118.905173,USA,PO Box,
93389,Bakersfield,CA,Kern,35.294405,-118.905173,USA,PO Box,
93390,Bakersfield,CA,Kern,35.294405,-118.905173,USA,PO Box,
93556,Ridgecrest,CA,Kern,35.294405,-118.905173,USA,PO Box,
93581,Tehachapi,CA,Kern,35.294405,-118.905173,USA,PO Box,
93596,Boron,CA,Kern,35.294405,-118.905173,USA,PO Box,
93251,McKittrick,CA,Kern,35.29803,-119.62492,USA,Non-Unique,
93276,Tupman,CA,Kern,35.29874,-119.35767,USA,Non-Unique,
93519,Cantil,CA,Kern,35.30885,-117.9684,USA,Non-Unique,
93304,Bakersfield,CA,Kern,35.332109,-119.022134,USA,Non-Unique,
93309,Bakersfield,CA,Kern,35.342891,-119.064803,USA,Non-Unique,
93220,Edison,CA,Kern,35.34746,-118.87176,USA,PO Box,
93528,Johannesburg,CA,Kern,35.370839,-117.642748,USA,Non-Unique,
93301,Bakersfield,CA,Kern,35.384337,-119.020562,USA,Non-Unique,
93305,Bakersfield,CA,Kern,35.385489,-118.985984,USA,Non-Unique,
93554,Randsburg,CA,Kern,35.38661,-117.715928,USA,Non-Unique,
93312,Bakersfield,CA,Kern,35.393478,-119.12046,USA,Non-Unique,
93314,Bakersfield,CA,Kern,35.393866,-119.244846,USA,Non-Unique,
93206,Buttonwillow,CA,Kern,35.40923,-119.44066,USA,Non-Unique,
93306,Bakersfield,CA,Kern,35.413048,-118.867478,USA,Non-Unique,
93263,Shafter,CA,Kern,35.50051,-119.27178,USA,Non-Unique,
93308,Bakersfield,CA,Kern,35.567657,-118.892932,USA,Non-Unique,
93205,Bodfish,CA,Kern,35.569608,-118.487681,USA,Non-Unique,
93280,Wasco,CA,Kern,35.59412,-119.34095,USA,Non-Unique,
93249,Lost Hills,CA,Kern,35.6254,-119.67885,USA,Non-Unique,
93527,Inyokern,CA,Kern,35.639715,-117.857026,USA,Non-Unique,
93283,Weldon,CA,Kern,35.64309,-118.31017,USA,Non-Unique,
93240,Lake Isabella,CA,Kern,35.668987,-118.457002,USA,Non-Unique,
93255,Onyx,CA,Kern,35.67204,-118.24101,USA,Non-Unique,
93250,McFarland,CA,Kern,35.67801,-119.22927,USA,Non-Unique,
93287,Woody,CA,Kern,35.70412,-118.83426,USA,Non-Unique,
93238,Kernville,CA,Kern,35.708701,-118.405385,USA,Non-Unique,
93285,Wofford Heights,CA,Kern,35.71306,-118.47274,USA,Non-Unique,
93226,Glennville,CA,Kern,35.73296,-118.709978,USA,Non-Unique,
93215,Delano,CA,Kern,35.779507,-119.200825,USA,Non-Unique,
93204,Avenal,CA,Kings,36.003134,-120.128716,USA,Non-Unique,
93239,Kettleman City,CA,Kings,36.00899,-119.96254,USA,Non-Unique,
93232,Hanford,CA,Kings,36.138861,-119.894727,USA,PO Box,
93246,Lemoore,CA,Kings,36.138861,-119.894727,USA,Unique,
93266,Stratford,CA,Kings,36.189441,-119.851865,USA,Non-Unique,
93230,Hanford,CA,Kings,36.220468,-119.71776,USA,Non-Unique,
93245,Lemoore,CA,Kings,36.268194,-119.817274,USA,Non-Unique,
93202,Armona,CA,Kings,36.31578,-119.70846,USA,Non-Unique,
95461,Middletown,CA,Lake,38.75565,-122.62835,USA,Non-Unique,
95467,Hidden Valley Lake,CA,Lake,38.809463,-122.539517,USA,Non-Unique,
95426,Cobb,CA,Lake,38.83559,-122.72294,USA,PO Box,
95457,Lower Lake,CA,Lake,38.89699,-122.625621,USA,Non-Unique,
95451,Kelseyville,CA,Lake,38.930811,-122.793699,USA,Non-Unique,
95422,Clearlake,CA,Lake,38.95823,-122.62637,USA,Non-Unique,
95424,Clearlake Park,CA,Lake,38.985997,-122.661027,USA,PO Box,
95435,Finley,CA,Lake,39.007213,-122.86951,USA,PO Box,
95423,Clearlake Oaks,CA,Lake,39.02184,-122.66546,USA,Non-Unique,
95443,Glenhaven,CA,Lake,39.02628,-122.73304,USA,Non-Unique,
95453,Lakeport,CA,Lake,39.05345,-122.919291,USA,Non-Unique,
95458,Lucerne,CA,Lake,39.09017,-122.79638,USA,Non-Unique,
95464,Nice,CA,Lake,39.12483,-122.85182,USA,Non-Unique,
95485,Upper Lake,CA,Lake,39.14551,-122.89907,USA,Non-Unique,
95493,Witter Springs,CA,Lake,39.185033,-122.965163,USA,Non-Unique,
96109,Doyle,CA,Lassen,40.02796,-120.10382,USA,Non-Unique,
96113,Herlong,CA,Lassen,40.14351,-120.13465,USA,Non-Unique,
96121,Milford,CA,Lassen,40.17129,-120.37244,USA,Non-Unique,
96136,Wendel,CA,Lassen,40.34056,-120.282398,USA,Non-Unique,
96128,Standish,CA,Lassen,40.341664,-120.423118,USA,Non-Unique,
96117,Litchfield,CA,Lassen,40.407309,-120.40921,USA,Non-Unique,
96127,Susanville,CA,Lassen,40.446063,-120.664132,USA,PO Box,
96130,Susanville,CA,Lassen,40.548881,-120.719159,USA,Non-Unique,
96123,Ravendale,CA,Lassen,40.776154,-120.326259,USA,Non-Unique,
96132,Termo,CA,Lassen,40.950868,-120.612954,USA,Non-Unique,
96119,Madeline,CA,Lassen,40.97664,-120.554754,USA,Non-Unique,
96056,Mcarthur,CA,Lassen,41.028176,-121.308316,USA,Non-Unique,
96068,Nubieber,CA,Lassen,41.09572,-121.18303,USA,PO Box,
96009,Bieber,CA,Lassen,41.131506,-121.128616,USA,PO Box,
90704,Avalon,CA,Los Angeles,33.34281,-118.32785,USA,Non-Unique,
90732,San Pedro,CA,Los Angeles,33.74212,-118.312878,USA,Non-Unique,
90731,San Pedro,CA,Los Angeles,33.753088,-118.253053,USA,Non-Unique,
90275,Rancho Palos Verdes,CA,Los Angeles,33.753146,-118.367459,USA,Non-Unique,
90802,Long Beach,CA,Los Angeles,33.756024,-118.201101,USA,Non-Unique,
90803,Long Beach,CA,Los Angeles,33.759885,-118.13016,USA,Non-Unique,
90899,Long Beach,CA,Los Angeles,33.767,-118.1892,USA,Unique,
90831,Long Beach,CA,Los Angeles,33.767817,-118.199401,USA,Non-Unique,
90833,Long Beach,CA,Los Angeles,33.767817,-118.199401,USA,Non-Unique,
90834,Long Beach,CA,Los Angeles,33.767817,-118.199401,USA,Non-Unique,
90835,Long Beach,CA,Los Angeles,33.767817,-118.199401,USA,Non-Unique,
90274,Palos Verdes Peninsula,CA,Los Angeles,33.77085,-118.37868,USA,Non-Unique,
90814,Long Beach,CA,Los Angeles,33.771301,-118.142654,USA,Non-Unique,
90822,Long Beach,CA,Los Angeles,33.778436,-118.118648,USA,Non-Unique,
90744,Wilmington,CA,Los Angeles,33.779417,-118.253853,USA,Non-Unique,
90813,Long Beach,CA,Los Angeles,33.780017,-118.183701,USA,Non-Unique,
90840,Long Beach,CA,Los Angeles,33.784266,-118.115698,USA,Non-Unique,
90804,Long Beach,CA,Los Angeles,33.785666,-118.135699,USA,Non-Unique,
90009,Los Angeles,CA,Los Angeles,33.786594,-118.298662,USA,PO Box,
90030,Los Angeles,CA,Los Angeles,33.786594,-118.298662,USA,PO Box,
90050,Los Angeles,CA,Los Angeles,33.786594,-118.298662,USA,PO Box,
90051,Los Angeles,CA,Los Angeles,33.786594,-118.298662,USA,PO Box,
90052,Los Angeles,CA,Los Angeles,33.786594,-118.298662,USA,PO Box,
90053,Los Angeles,CA,Los Angeles,33.786594,-118.298662,USA,PO Box,
90054,Los Angeles,CA,Los Angeles,33.786594,-118.298662,USA,PO Box,
90055,Los Angeles,CA,Los Angeles,33.786594,-118.298662,USA,PO Box,
90060,Los Angeles,CA,Los Angeles,33.786594,-118.298662,USA,PO Box,
90070,Los Angeles,CA,Los Angeles,33.786594,-118.298662,USA,PO Box,
90072,Los Angeles,CA,Los Angeles,33.786594,-118.298662,USA,PO Box,
90074,Los Angeles,CA,Los Angeles,33.786594,-118.298662,USA,Unique,
90075,Los Angeles,CA,Los Angeles,33.786594,-118.298662,USA,PO Box,
90076,Los Angeles,CA,Los Angeles,33.786594,-118.298662,USA,PO Box,
90078,Los Angeles,CA,Los Angeles,33.786594,-118.298662,USA,PO Box,
90080,Los Angeles,CA,Los Angeles,33.786594,-118.298662,USA,PO Box,
90081,Los Angeles,CA,Los Angeles,33.786594,-118.298662,USA,PO Box,
90082,Los Angeles,CA,Los Angeles,33.786594,-118.298662,USA,PO Box,
90083,Los Angeles,CA,Los Angeles,33.786594,-118.298662,USA,PO Box,
90084,Los Angeles,CA,Los Angeles,33.786594,-118.298662,USA,Unique,
90086,Los Angeles,CA,Los Angeles,33.786594,-118.298662,USA,PO Box,
90087,Los Angeles,CA,Los Angeles,33.786594,-118.298662,USA,PO Box,
90088,Los Angeles,CA,Los Angeles,33.786594,-118.298662,USA,Unique,
90091,Los Angeles,CA,Los Angeles,33.786594,-118.298662,USA,PO Box,
90093,Los Angeles,CA,Los Angeles,33.786594,-118.298662,USA,PO Box,
90096,Los Angeles,CA,Los Angeles,33.786594,-118.298662,USA,Unique,
90099,Los Angeles,CA,Los Angeles,33.786594,-118.298662,USA,Unique,
90101,Los Angeles,CA,Los Angeles,33.786594,-118.298662,USA,Non-Unique,
90202,Bell Gardens,CA,Los Angeles,33.786594,-118.298662,USA,PO Box,
90209,Beverly Hills,CA,Los Angeles,33.786594,-118.298662,USA,PO Box,
90213,Beverly Hills,CA,Los Angeles,33.786594,-118.298662,USA,PO Box,
90223,Compton,CA,Los Angeles,33.786594,-118.298662,USA,PO Box,
90224,Compton,CA,Los Angeles,33.786594,-118.298662,USA,PO Box,
90231,Culver City,CA,Los Angeles,33.786594,-118.298662,USA,PO Box,
90233,Culver City,CA,Los Angeles,33.786594,-118.298662,USA,PO Box,
90239,Downey,CA,Los Angeles,33.786594,-118.298662,USA,PO Box,
90251,Hawthorne,CA,Los Angeles,33.786594,-118.298662,USA,PO Box,
90261,Lawndale,CA,Los Angeles,33.786594,-118.298662,USA,Non-Unique,
90264,Malibu,CA,Los Angeles,33.786594,-118.298662,USA,PO Box,
90267,Manhattan Beach,CA,Los Angeles,33.786594,-118.298662,USA,PO Box,
90294,Venice,CA,Los Angeles,33.786594,-118.298662,USA,PO Box,
90295,Marina Del Rey,CA,Los Angeles,33.786594,-118.298662,USA,PO Box,
90296,Playa Del Rey,CA,Los Angeles,33.786594,-118.298662,USA,PO Box,
90306,Inglewood,CA,Los Angeles,33.786594,-118.298662,USA,PO Box,
90307,Inglewood,CA,Los Angeles,33.786594,-118.298662,USA,PO Box,
90308,Inglewood,CA,Los Angeles,33.786594,-118.298662,USA,PO Box,
90309,Inglewood,CA,Los Angeles,33.786594,-118.298662,USA,PO Box,
90310,Inglewood,CA,Los Angeles,33.786594,-118.298662,USA,PO Box,
90311,Inglewood,CA,Los Angeles,33.786594,-118.298662,USA,Non-Unique,
90312,Inglewood,CA,Los Angeles,33.786594,-118.298662,USA,PO Box,
90406,Santa Monica,CA,Los Angeles,33.786594,-118.298662,USA,PO Box,
90407,Santa Monica,CA,Los Angeles,33.786594,-118.298662,USA,PO Box,
90408,Santa Monica,CA,Los Angeles,33.786594,-118.298662,USA,PO Box,
90409,Santa Monica,CA,Los Angeles,33.786594,-118.298662,USA,PO Box,
90410,Santa Monica,CA,Los Angeles,33.786594,-118.298662,USA,PO Box,
90411,Santa Monica,CA,Los Angeles,33.786594,-118.298662,USA,PO Box,
90507,Torrance,CA,Los Angeles,33.786594,-118.298662,USA,PO Box,
90508,Torrance,CA,Los Angeles,33.786594,-118.298662,USA,PO Box,
90509,Torrance,CA,Los Angeles,33.786594,-118.298662,USA,PO Box,
90510,Torrance,CA,Los Angeles,33.786594,-118.298662,USA,PO Box,
90607,Whittier,CA,Los Angeles,33.786594,-118.298662,USA,PO Box,
90608,Whittier,CA,Los Angeles,33.786594,-118.298662,USA,PO Box,
90609,Whittier,CA,Los Angeles,33.786594,-118.298662,USA,PO Box,
90610,Whittier,CA,Los Angeles,33.786594,-118.298662,USA,PO Box,
90637,La Mirada,CA,Los Angeles,33.786594,-118.298662,USA,PO Box,
90651,Norwalk,CA,Los Angeles,33.786594,-118.298662,USA,PO Box,
90652,Norwalk,CA,Los Angeles,33.786594,-118.298662,USA,PO Box,
90661,Pico Rivera,CA,Los Angeles,33.786594,-118.298662,USA,PO Box,
90662,Pico Rivera,CA,Los Angeles,33.786594,-118.298662,USA,PO Box,
90671,Santa Fe Springs,CA,Los Angeles,33.786594,-118.298662,USA,PO Box,
90702,Artesia,CA,Los Angeles,33.786594,-118.298662,USA,PO Box,
90707,Bellflower,CA,Los Angeles,33.786594,-118.298662,USA,PO Box,
90711,Lakewood,CA,Los Angeles,33.786594,-118.298662,USA,PO Box,
90733,San Pedro,CA,Los Angeles,33.786594,-118.298662,USA,PO Box,
90734,San Pedro,CA,Los Angeles,33.786594,-118.298662,USA,PO Box,
90748,Wilmington,CA,Los Angeles,33.786594,-118.298662,USA,PO Box,
90749,Carson,CA,Los Angeles,33.786594,-118.298662,USA,PO Box,
90809,Long Beach,CA,Los Angeles,33.786594,-118.298662,USA,PO Box,
90832,Long Beach,CA,Los Angeles,33.786594,-118.298662,USA,PO Box,
90842,Long Beach,CA,Los Angeles,33.786594,-118.298662,USA,Unique,
90844,Long Beach,CA,Los Angeles,33.786594,-118.298662,USA,Unique,
90847,Long Beach,CA,Los Angeles,33.786594,-118.298662,USA,Unique,
90848,Long Beach,CA,Los Angeles,33.786594,-118.298662,USA,Unique,
90853,Long Beach,CA,Los Angeles,33.786594,-118.298662,USA,PO Box,
91003,Altadena,CA,Los Angeles,33.786594,-118.298662,USA,PO Box,
91009,Duarte,CA,Los Angeles,33.786594,-118.298662,USA,PO Box,
91012,La Canada Flintridge,CA,Los Angeles,33.786594,-118.298662,USA,PO Box,
91017,Monrovia,CA,Los Angeles,33.786594,-118.298662,USA,PO Box,
91021,Montrose,CA,Los Angeles,33.786594,-118.298662,USA,PO Box,
91023,Mount Wilson,CA,Los Angeles,33.786594,-118.298662,USA,PO Box,
91025,Sierra Madre,CA,Los Angeles,33.786594,-118.298662,USA,PO Box,
91031,South Pasadena,CA,Los Angeles,33.786594,-118.298662,USA,PO Box,
91041,Sunland,CA,Los Angeles,33.786594,-118.298662,USA,PO Box,
91043,Tujunga,CA,Los Angeles,33.786594,-118.298662,USA,PO Box,
91066,Arcadia,CA,Los Angeles,33.786594,-118.298662,USA,PO Box,
91077,Arcadia,CA,Los Angeles,33.786594,-118.298662,USA,PO Box,
91102,Pasadena,CA,Los Angeles,33.786594,-118.298662,USA,PO Box,
91109,Pasadena,CA,Los Angeles,33.786594,-118.298662,USA,PO Box,
91110,Pasadena,CA,Los Angeles,33.786594,-118.298662,USA,Unique,
91114,Pasadena,CA,Los Angeles,33.786594,-118.298662,USA,PO Box,
91115,Pasadena,CA,Los Angeles,33.786594,-118.298662,USA,PO Box,
91116,Pasadena,CA,Los Angeles,33.786594,-118.298662,USA,PO Box,
91117,Pasadena,CA,Los Angeles,33.786594,-118.298662,USA,PO Box,
91118,San Marino,CA,Los Angeles,33.786594,-118.298662,USA,PO Box,
91121,Pasadena,CA,Los Angeles,33.786594,-118.298662,USA,Unique,
91123,Pasadena,CA,Los Angeles,33.786594,-118.298662,USA,Non-Unique,
91124,Pasadena,CA,Los Angeles,33.786594,-118.298662,USA,Unique,
91125,Pasadena,CA,Los Angeles,33.786594,-118.298662,USA,Unique,
91126,Pasadena,CA,Los Angeles,33.786594,-118.298662,USA,Unique,
91129,Pasadena,CA,Los Angeles,33.786594,-118.298662,USA,Unique,
91182,Pasadena,CA,Los Angeles,33.786594,-118.298662,USA,Unique,
91184,Pasadena,CA,Los Angeles,33.786594,-118.298662,USA,Unique,
91185,Pasadena,CA,Los Angeles,33.786594,-118.298662,USA,Unique,
91188,Pasadena,CA,Los Angeles,33.786594,-118.298662,USA,Unique,
91189,Pasadena,CA,Los Angeles,33.786594,-118.298662,USA,Unique,
91209,Glendale,CA,Los Angeles,33.786594,-118.298662,USA,PO Box,
91221,Glendale,CA,Los Angeles,33.786594,-118.298662,USA,PO Box,
91222,Glendale,CA,Los Angeles,33.786594,-118.298662,USA,PO Box,
91224,La Crescenta,CA,Los Angeles,33.786594,-118.298662,USA,PO Box,
91225,Glendale,CA,Los Angeles,33.786594,-118.298662,USA,PO Box,
91226,Glendale,CA,Los Angeles,33.786594,-118.298662,USA,PO Box,
91305,Canoga Park,CA,Los Angeles,33.786594,-118.298662,USA,PO Box,
91308,West Hills,CA,Los Angeles,33.786594,-118.298662,USA,PO Box,
91309,Canoga Park,CA,Los Angeles,33.786594,-118.298662,USA,PO Box,
91310,Castaic,CA,Los Angeles,33.786594,-118.298662,USA,PO Box,
91313,Chatsworth,CA,Los Angeles,33.786594,-118.298662,USA,PO Box,
91322,Newhall,CA,Los Angeles,33.786594,-118.298662,USA,PO Box,
91327,Northridge,CA,Los Angeles,33.786594,-118.298662,USA,PO Box,
91328,Northridge,CA,Los Angeles,33.786594,-118.298662,USA,PO Box,
91329,Northridge,CA,Los Angeles,33.786594,-118.298662,USA,Unique,
91333,Pacoima,CA,Los Angeles,33.786594,-118.298662,USA,PO Box,
91334,Pacoima,CA,Los Angeles,33.786594,-118.298662,USA,PO Box,
91337,Reseda,CA,Los Angeles,33.786594,-118.298662,USA,PO Box,
91341,San Fernando,CA,Los Angeles,33.786594,-118.298662,USA,PO Box,
91346,Mission Hills,CA,Los Angeles,33.786594,-118.298662,USA,PO Box,
91353,Sun Valley,CA,Los Angeles,33.786594,-118.298662,USA,PO Box,
91357,Tarzana,CA,Los Angeles,33.786594,-118.298662,USA,PO Box,
91365,Woodland Hills,CA,Los Angeles,33.786594,-118.298662,USA,PO Box,
91372,Calabasas,CA,Los Angeles,33.786594,-118.298662,USA,PO Box,
91376,Agoura Hills,CA,Los Angeles,33.786594,-118.298662,USA,PO Box,
91380,Santa Clarita,CA,Los Angeles,33.786594,-118.298662,USA,PO Box,
91382,Santa Clarita,CA,Los Angeles,33.786594,-118.298662,USA,Non-Unique,
91383,Santa Clarita,CA,Los Angeles,33.786594,-118.298662,USA,Non-Unique,
91385,Valencia,CA,Los Angeles,33.786594,-118.298662,USA,PO Box,
91386,Canyon Country,CA,Los Angeles,33.786594,-118.298662,USA,PO Box,
91392,Sylmar,CA,Los Angeles,33.786594,-118.298662,USA,PO Box,
91393,North Hills,CA,Los Angeles,33.786594,-118.298662,USA,PO Box,
91394,Granada Hills,CA,Los Angeles,33.786594,-118.298662,USA,PO Box,
91395,Mission Hills,CA,Los Angeles,33.786594,-118.298662,USA,PO Box,
91396,Winnetka,CA,Los Angeles,33.786594,-118.298662,USA,PO Box,
91404,Van Nuys,CA,Los Angeles,33.786594,-118.298662,USA,PO Box,
91407,Van Nuys,CA,Los Angeles,33.786594,-118.298662,USA,PO Box,
91408,Van Nuys,CA,Los Angeles,33.786594,-118.298662,USA,PO Box,
91409,Van Nuys,CA,Los Angeles,33.786594,-118.298662,USA,PO Box,
91410,Van Nuys,CA,Los Angeles,33.786594,-118.298662,USA,PO Box,
91412,Panorama City,CA,Los Angeles,33.786594,-118.298662,USA,PO Box,
91413,Sherman Oaks,CA,Los Angeles,33.786594,-118.298662,USA,PO Box,
91416,Encino,CA,Los Angeles,33.786594,-118.298662,USA,PO Box,
91426,Encino,CA,Los Angeles,33.786594,-118.298662,USA,PO Box,
91470,Van Nuys,CA,Los Angeles,33.786594,-118.298662,USA,Unique,
91482,Van Nuys,CA,Los Angeles,33.786594,-118.298662,USA,Unique,
91495,Sherman Oaks,CA,Los Angeles,33.786594,-118.298662,USA,Unique,
91496,Van Nuys,CA,Los Angeles,33.786594,-118.298662,USA,Unique,
91499,Van Nuys,CA,Los Angeles,33.786594,-118.298662,USA,Unique,
91503,Burbank,CA,Los Angeles,33.786594,-118.298662,USA,PO Box,
91507,Burbank,CA,Los Angeles,33.786594,-118.298662,USA,PO Box,
91508,Burbank,CA,Los Angeles,33.786594,-118.298662,USA,PO Box,
91510,Burbank,CA,Los Angeles,33.786594,-118.298662,USA,PO Box,
91521,Burbank,CA,Los Angeles,33.786594,-118.298662,USA,Non-Unique,
91522,Burbank,CA,Los Angeles,33.786594,-118.298662,USA,Non-Unique,
91523,Burbank,CA,Los Angeles,33.786594,-118.298662,USA,Non-Unique,
91526,Burbank,CA,Los Angeles,33.786594,-118.298662,USA,Unique,
91603,North Hollywood,CA,Los Angeles,33.786594,-118.298662,USA,PO Box,
91609,North Hollywood,CA,Los Angeles,33.786594,-118.298662,USA,PO Box,
91610,Toluca Lake,CA,Los Angeles,33.786594,-118.298662,USA,PO Box,
91611,North Hollywood,CA,Los Angeles,33.786594,-118.298662,USA,Unique,
91612,North Hollywood,CA,Los Angeles,33.786594,-118.298662,USA,Unique,
91614,Studio City,CA,Los Angeles,33.786594,-118.298662,USA,PO Box,
91615,North Hollywood,CA,Los Angeles,33.786594,-118.298662,USA,PO Box,
91616,North Hollywood,CA,Los Angeles,33.786594,-118.298662,USA,PO Box,
91617,Valley Village,CA,Los Angeles,33.786594,-118.298662,USA,PO Box,
91618,North Hollywood,CA,Los Angeles,33.786594,-118.298662,USA,PO Box,
91714,City of Industry,CA,Los Angeles,33.786594,-118.298662,USA,PO Box,
91715,City of Industry,CA,Los Angeles,33.786594,-118.298662,USA,PO Box,
91716,City of Industry,CA,Los Angeles,33.786594,-118.298662,USA,PO Box,
91734,El Monte,CA,Los Angeles,33.786594,-118.298662,USA,PO Box,
91735,El Monte,CA,Los Angeles,33.786594,-118.298662,USA,Unique,
91747,La Puente,CA,Los Angeles,33.786594,-118.298662,USA,PO Box,
91749,La Puente,CA,Los Angeles,33.786594,-118.298662,USA,PO Box,
91756,Monterey Park,CA,Los Angeles,33.786594,-118.298662,USA,Unique,
91769,Pomona,CA,Los Angeles,33.786594,-118.298662,USA,PO Box,
91771,Rosemead,CA,Los Angeles,33.786594,-118.298662,USA,Unique,
91772,Rosemead,CA,Los Angeles,33.786594,-118.298662,USA,Unique,
91778,San Gabriel,CA,Los Angeles,33.786594,-118.298662,USA,PO Box,
91788,Walnut,CA,Los Angeles,33.786594,-118.298662,USA,PO Box,
91793,West Covina,CA,Los Angeles,33.786594,-118.298662,USA,PO Box,
91802,Alhambra,CA,Los Angeles,33.786594,-118.298662,USA,PO Box,
91804,Alhambra,CA,Los Angeles,33.786594,-118.298662,USA,Non-Unique,
91896,Alhambra,CA,Los Angeles,33.786594,-118.298662,USA,PO Box,
91899,Alhambra,CA,Los Angeles,33.786594,-118.298662,USA,PO Box,
93539,Lancaster,CA,Los Angeles,33.786594,-118.298662,USA,PO Box,
93584,Lancaster,CA,Los Angeles,33.786594,-118.298662,USA,PO Box,
93586,Lancaster,CA,Los Angeles,33.786594,-118.298662,USA,PO Box,
93590,Palmdale,CA,Los Angeles,33.786594,-118.298662,USA,PO Box,
93599,Palmdale,CA,Los Angeles,33.786594,-118.298662,USA,Unique,
90710,Harbor City,CA,Los Angeles,33.79002,-118.29785,USA,Non-Unique,
90717,Lomita,CA,Los Angeles,33.79224,-118.31507,USA,Non-Unique,
90815,Long Beach,CA,Los Angeles,33.793516,-118.114612,USA,Non-Unique,
90755,Signal Hill,CA,Los Angeles,33.803448,-118.168135,USA,Non-Unique,
90801,Long Beach,CA,Los Angeles,33.804309,-118.200957,USA,PO Box,
90806,Long Beach,CA,Los Angeles,33.80564,-118.188597,USA,Non-Unique,
90505,Torrance,CA,Los Angeles,33.807882,-118.347957,USA,Non-Unique,
90745,Carson,CA,Los Angeles,33.813317,-118.261154,USA,Non-Unique,
90810,Long Beach,CA,Los Angeles,33.819266,-118.232453,USA,Non-Unique,
90808,Long Beach,CA,Los Angeles,33.823943,-118.111336,USA,Non-Unique,
90846,Long Beach,CA,Los Angeles,33.824918,-118.150352,USA,Unique,
90277,Redondo Beach,CA,Los Angeles,33.830006,-118.387124,USA,Non-Unique,
90716,Hawaiian Gardens,CA,Los Angeles,33.830967,-118.072796,USA,Non-Unique,
90807,Long Beach,CA,Los Angeles,33.831466,-118.181102,USA,Non-Unique,
90502,Torrance,CA,Los Angeles,33.833816,-118.293405,USA,Non-Unique,
90501,Torrance,CA,Los Angeles,33.835665,-118.303805,USA,Non-Unique,
90895,Carson,CA,Los Angeles,33.8392,-118.2202,USA,Unique,
90503,Torrance,CA,Los Angeles,33.840399,-118.353714,USA,Non-Unique,
90715,Lakewood,CA,Los Angeles,33.840565,-118.078748,USA,Non-Unique,
90712,Lakewood,CA,Los Angeles,33.845624,-118.14645,USA,Non-Unique,
90713,Lakewood,CA,Los Angeles,33.850465,-118.109399,USA,Non-Unique,
90714,Lakewood,CA,Los Angeles,33.851215,-118.1339,USA,PO Box,
90746,Carson,CA,Los Angeles,33.859716,-118.255204,USA,Non-Unique,
90254,Hermosa Beach,CA,Los Angeles,33.86224,-118.39952,USA,Non-Unique,
90747,Carson,CA,Los Angeles,33.8629,-118.251319,USA,Non-Unique,
90805,Long Beach,CA,Los Angeles,33.864617,-118.180567,USA,Non-Unique,
90701,Artesia,CA,Los Angeles,33.865395,-118.073148,USA,Non-Unique,
90703,Cerritos,CA,Los Angeles,33.866914,-118.068648,USA,Non-Unique,
90504,Torrance,CA,Los Angeles,33.867257,-118.330794,USA,Non-Unique,
90278,Redondo Beach,CA,Los Angeles,33.873214,-118.370359,USA,Non-Unique,
90220,Compton,CA,Los Angeles,33.874815,-118.240208,USA,Non-Unique,
90248,Gardena,CA,Los Angeles,33.876482,-118.284077,USA,Non-Unique,
90221,Compton,CA,Los Angeles,33.879565,-118.21681,USA,Non-Unique,
90506,Torrance,CA,Los Angeles,33.884696,-118.329998,USA,Non-Unique,
90706,Bellflower,CA,Los Angeles,33.888014,-118.12965,USA,Non-Unique,
90247,Gardena,CA,Los Angeles,33.888315,-118.295256,USA,Non-Unique,
90260,Lawndale,CA,Los Angeles,33.88856,-118.351813,USA,Non-Unique,
90266,Manhattan Beach,CA,Los Angeles,33.889151,-118.402127,USA,Non-Unique,
90723,Paramount,CA,Los Angeles,33.899015,-118.165152,USA,Non-Unique,
90638,La Mirada,CA,Los Angeles,33.900863,-118.007297,USA,Non-Unique,
90249,Gardena,CA,Los Angeles,33.90139,-118.315697,USA,Non-Unique,
90639,La Mirada,CA,Los Angeles,33.905813,-118.018247,USA,Non-Unique,
90650,Norwalk,CA,Los Angeles,33.906763,-118.076549,USA,Non-Unique,
90222,Compton,CA,Los Angeles,33.909915,-118.235654,USA,Non-Unique,
90250,Hawthorne,CA,Los Angeles,33.914775,-118.348083,USA,Non-Unique,
90245,El Segundo,CA,Los Angeles,33.91918,-118.41647,USA,Non-Unique,
90061,Los Angeles,CA,Los Angeles,33.920965,-118.275356,USA,Non-Unique,
90059,Los Angeles,CA,Los Angeles,33.921065,-118.244955,USA,Non-Unique,
90242,Downey,CA,Los Angeles,33.922714,-118.139969,USA,Non-Unique,
90262,Lynwood,CA,Los Angeles,33.924538,-118.202954,USA,Non-Unique,
90670,Santa Fe Springs,CA,Los Angeles,33.927063,-118.063698,USA,Non-Unique,
90604,Whittier,CA,Los Angeles,33.932663,-118.009085,USA,Non-Unique,
90280,South Gate,CA,Los Angeles,33.937714,-118.193403,USA,Non-Unique,
90304,Inglewood,CA,Los Angeles,33.937887,-118.358559,USA,Non-Unique,
90044,Los Angeles,CA,Los Angeles,33.938108,-118.285706,USA,Non-Unique,
90241,Downey,CA,Los Angeles,33.939164,-118.125851,USA,Non-Unique,
90303,Inglewood,CA,Los Angeles,33.939766,-118.331085,USA,Non-Unique,
90045,Los Angeles,CA,Los Angeles,33.942108,-118.417488,USA,Non-Unique,
90293,Playa Del Rey,CA,Los Angeles,33.947305,-118.439841,USA,Non-Unique,
90603,Whittier,CA,Los Angeles,33.947372,-117.995297,USA,Non-Unique,
90003,Los Angeles,CA,Los Angeles,33.949164,-118.273156,USA,Non-Unique,
90605,Whittier,CA,Los Angeles,33.950295,-118.024352,USA,Non-Unique,
90002,Los Angeles,CA,Los Angeles,33.950514,-118.245855,USA,Non-Unique,
90047,Los Angeles,CA,Los Angeles,33.953617,-118.308429,USA,Non-Unique,
90240,Downey,CA,Los Angeles,33.955729,-118.118346,USA,Non-Unique,
90301,Inglewood,CA,Los Angeles,33.956526,-118.358654,USA,Non-Unique,
90305,Inglewood,CA,Los Angeles,33.95889,-118.330548,USA,Non-Unique,
90602,Whittier,CA,Los Angeles,33.971839,-118.036578,USA,Non-Unique,
90001,Los Angeles,CA,Los Angeles,33.973951,-118.248405,USA,Non-Unique,
90302,Inglewood,CA,Los Angeles,33.975332,-118.355252,USA,Non-Unique,
90094,Playa Vista,CA,Los Angeles,33.975416,-118.416989,USA,Non-Unique,
91745,Hacienda Heights,CA,Los Angeles,33.976114,-117.981631,USA,Non-Unique,
90201,Bell Gardens,CA,Los Angeles,33.976663,-118.168903,USA,Non-Unique,
90606,Whittier,CA,Los Angeles,33.977272,-118.066363,USA,Non-Unique,
90255,Huntington Park,CA,Los Angeles,33.977987,-118.213137,USA,Non-Unique,
91748,Rowland Heights,CA,Los Angeles,33.9781,-117.88749,USA,Non-Unique,
90292,Marina Del Rey,CA,Los Angeles,33.979007,-118.457852,USA,Non-Unique,
90660,Pico Rivera,CA,Los Angeles,33.985812,-118.088787,USA,Non-Unique,
90056,Los Angeles,CA,Los Angeles,33.988047,-118.370361,USA,Non-Unique,
90270,Maywood,CA,Los Angeles,33.988463,-118.187376,USA,Non-Unique,
90043,Los Angeles,CA,Los Angeles,33.988505,-118.336358,USA,Non-Unique,
90040,Los Angeles,CA,Los Angeles,33.990863,-118.153153,USA,Non-Unique,
90291,Venice,CA,Los Angeles,33.993396,-118.465193,USA,Non-Unique,
90230,Culver City,CA,Los Angeles,33.998214,-118.394059,USA,Non-Unique,
90058,Los Angeles,CA,Los Angeles,33.999433,-118.213255,USA,Non-Unique,
90066,Los Angeles,CA,Los Angeles,34.002028,-118.430657,USA,Non-Unique,
90037,Los Angeles,CA,Los Angeles,34.002723,-118.287487,USA,Non-Unique,
90062,Los Angeles,CA,Los Angeles,34.003638,-118.308806,USA,Non-Unique,
90601,Whittier,CA,Los Angeles,34.004311,-118.0441,USA,Non-Unique,
90011,Los Angeles,CA,Los Angeles,34.00709,-118.258681,USA,Non-Unique,
90640,Montebello,CA,Los Angeles,34.00946,-118.10535,USA,Non-Unique,
90008,Los Angeles,CA,Los Angeles,34.009552,-118.346724,USA,Non-Unique,
90405,Santa Monica,CA,Los Angeles,34.011167,-118.46963,USA,Non-Unique,
90401,Santa Monica,CA,Los Angeles,34.013666,-118.49375,USA,Non-Unique,
91789,Walnut,CA,Los Angeles,34.018354,-117.85492,USA,Non-Unique,
90232,Culver City,CA,Los Angeles,34.019323,-118.391902,USA,Non-Unique,
90089,Los Angeles,CA,Los Angeles,34.020221,-118.286035,USA,Non-Unique,
90023,Los Angeles,CA,Los Angeles,34.022502,-118.199613,USA,Non-Unique,
91792,West Covina,CA,Los Angeles,34.022581,-117.902359,USA,Non-Unique,
90022,Los Angeles,CA,Los Angeles,34.023728,-118.156275,USA,Non-Unique,
90404,Santa Monica,CA,Los Angeles,34.026608,-118.473643,USA,Non-Unique,
90007,Los Angeles,CA,Los Angeles,34.028133,-118.284828,USA,Non-Unique,
90016,Los Angeles,CA,Los Angeles,34.028332,-118.354338,USA,Non-Unique,
91765,Diamond Bar,CA,Los Angeles,34.02862,-117.81034,USA,Non-Unique,
90018,Los Angeles,CA,Los Angeles,34.028887,-118.317183,USA,Non-Unique,
90021,Los Angeles,CA,Los Angeles,34.029036,-118.23787,USA,Non-Unique,
90034,Los Angeles,CA,Los Angeles,34.030578,-118.399613,USA,Non-Unique,
90403,Santa Monica,CA,Los Angeles,34.030755,-118.492101,USA,Non-Unique,
91744,La Puente,CA,Los Angeles,34.031415,-117.93647,USA,Non-Unique,
90402,Santa Monica,CA,Los Angeles,34.034666,-118.504039,USA,Non-Unique,
90064,Los Angeles,CA,Los Angeles,34.037252,-118.423573,USA,Non-Unique,
90263,Malibu,CA,Los Angeles,34.039034,-118.707992,USA,Non-Unique,
90015,Los Angeles,CA,Los Angeles,34.039378,-118.266299,USA,Non-Unique,
90079,Los Angeles,CA,Los Angeles,34.040587,-118.255404,USA,Non-Unique,
91766,Pomona,CA,Los Angeles,34.042286,-117.756106,USA,Non-Unique,
90014,Los Angeles,CA,Los Angeles,34.043146,-118.251746,USA,Non-Unique,
91746,La Puente,CA,Los Angeles,34.044416,-117.985366,USA,Non-Unique,
90063,Los Angeles,CA,Los Angeles,34.045105,-118.185914,USA,Non-Unique,
90025,Los Angeles,CA,Los Angeles,34.04536,-118.445818,USA,Non-Unique,
90013,Los Angeles,CA,Los Angeles,34.045406,-118.240454,USA,Non-Unique,
90006,Los Angeles,CA,Los Angeles,34.048042,-118.294177,USA,Non-Unique,
90272,Pacific Palisades,CA,Los Angeles,34.04806,-118.52647,USA,Non-Unique,
90019,Los Angeles,CA,Los Angeles,34.049841,-118.33846,USA,Non-Unique,
90033,Los Angeles,CA,Los Angeles,34.05038,-118.211991,USA,Non-Unique,
91755,Monterey Park,CA,Los Angeles,34.050965,-118.114394,USA,Non-Unique,
90189,Los Angeles,CA,Los Angeles,34.0515,-118.2559,USA,Unique,
90035,Los Angeles,CA,Los Angeles,34.051809,-118.383674,USA,Non-Unique,
91733,South El Monte,CA,Los Angeles,34.05195,-118.04673,USA,Non-Unique,
90071,Los Angeles,CA,Los Angeles,34.052876,-118.254943,USA,Non-Unique,
90017,Los Angeles,CA,Los Angeles,34.052913,-118.26434,USA,Non-Unique,
91754,Monterey Park,CA,Los Angeles,34.052922,-118.143465,USA,Non-Unique,
90073,Los Angeles,CA,Los Angeles,34.054533,-118.45703,USA,Non-Unique,
90067,Los Angeles,CA,Los Angeles,34.057597,-118.413998,USA,Non-Unique,
90005,Los Angeles,CA,Los Angeles,34.059163,-118.306892,USA,Non-Unique,
91791,West Covina,CA,Los Angeles,34.061634,-117.893169,USA,Non-Unique,
90057,Los Angeles,CA,Los Angeles,34.061735,-118.276757,USA,Non-Unique,
90010,Los Angeles,CA,Los Angeles,34.062148,-118.315889,USA,Non-Unique,
90212,Beverly Hills,CA,Los Angeles,34.06221,-118.401966,USA,Non-Unique,
91768,Pomona,CA,Los Angeles,34.063516,-117.790379,USA,Non-Unique,
90211,Beverly Hills,CA,Los Angeles,34.064958,-118.382979,USA,Non-Unique,
91770,Rosemead,CA,Los Angeles,34.065493,-118.084529,USA,Non-Unique,
90024,Los Angeles,CA,Los Angeles,34.065729,-118.434999,USA,Non-Unique,
90012,Los Angeles,CA,Los Angeles,34.065875,-118.238728,USA,Non-Unique,
90265,Malibu,CA,Los Angeles,34.066117,-118.846342,USA,Non-Unique,
90020,Los Angeles,CA,Los Angeles,34.06638,-118.30987,USA,Non-Unique,
91790,West Covina,CA,Los Angeles,34.066964,-117.937007,USA,Non-Unique,
90036,Los Angeles,CA,Los Angeles,34.07041,-118.350411,USA,Non-Unique,
90095,Los Angeles,CA,Los Angeles,34.071312,-118.443545,USA,Non-Unique,
90090,Dodgertown,CA,Los Angeles,34.072862,-118.240989,USA,Unique,
90048,Los Angeles,CA,Los Angeles,34.072924,-118.37271,USA,Non-Unique,
91732,El Monte,CA,Los Angeles,34.07342,-118.015345,USA,Non-Unique,
91803,Alhambra,CA,Los Angeles,34.074736,-118.145959,USA,Non-Unique,
90004,Los Angeles,CA,Los Angeles,34.076198,-118.310723,USA,Non-Unique,
90032,Los Angeles,CA,Los Angeles,34.078195,-118.185497,USA,Non-Unique,
91731,El Monte,CA,Los Angeles,34.078573,-118.043456,USA,Non-Unique,
90026,Los Angeles,CA,Los Angeles,34.080017,-118.262643,USA,Non-Unique,
91724,Covina,CA,Los Angeles,34.080444,-117.854733,USA,Non-Unique,
91767,Pomona,CA,Los Angeles,34.083086,-117.737998,USA,Non-Unique,
91723,Covina,CA,Los Angeles,34.084747,-117.886844,USA,Non-Unique,
91706,Baldwin Park,CA,Los Angeles,34.08529,-117.9609,USA,Non-Unique,
90031,Los Angeles,CA,Los Angeles,34.085807,-118.206617,USA,Non-Unique,
90038,Los Angeles,CA,Los Angeles,34.088475,-118.325527,USA,Non-Unique,
90290,Topanga,CA,Los Angeles,34.08927,-118.60436,USA,Non-Unique,
90029,Los Angeles,CA,Los Angeles,34.089848,-118.294661,USA,Non-Unique,
91801,Alhambra,CA,Los Angeles,34.090728,-118.127527,USA,Non-Unique,
91776,San Gabriel,CA,Los Angeles,34.090776,-118.095091,USA,Non-Unique,
90049,Los Angeles,CA,Los Angeles,34.091829,-118.491244,USA,Non-Unique,
90069,West Hollywood,CA,Los Angeles,34.093828,-118.381697,USA,Non-Unique,
91711,Claremont,CA,Los Angeles,34.09668,-117.71978,USA,Non-Unique,
91722,Covina,CA,Los Angeles,34.097345,-117.906736,USA,Non-Unique,
90028,Los Angeles,CA,Los Angeles,34.099912,-118.326912,USA,Non-Unique,
91750,La Verne,CA,Los Angeles,34.10084,-117.76784,USA,Non-Unique,
90210,Beverly Hills,CA,Los Angeles,34.10263,-118.415972,USA,Non-Unique,
91773,San Dimas,CA,Los Angeles,34.10668,-117.80673,USA,Non-Unique,
91780,Temple City,CA,Los Angeles,34.10723,-118.05785,USA,Non-Unique,
90046,Los Angeles,CA,Los Angeles,34.108455,-118.362081,USA,Non-Unique,
90077,Los Angeles,CA,Los Angeles,34.108537,-118.457081,USA,Non-Unique,
91030,South Pasadena,CA,Los Angeles,34.108957,-118.156615,USA,Non-Unique,
90039,Los Angeles,CA,Los Angeles,34.111525,-118.260552,USA,Non-Unique,
90065,Los Angeles,CA,Los Angeles,34.112272,-118.225496,USA,Non-Unique,
90042,Los Angeles,CA,Los Angeles,34.114708,-118.192098,USA,Non-Unique,
91775,San Gabriel,CA,Los Angeles,34.114772,-118.089431,USA,Non-Unique,
91740,Glendora,CA,Los Angeles,34.119363,-117.855059,USA,Non-Unique,
91108,San Marino,CA,Los Angeles,34.122671,-118.112911,USA,Non-Unique,
91301,Agoura Hills,CA,Los Angeles,34.123286,-118.758541,USA,Non-Unique,
91302,Calabasas,CA,Los Angeles,34.12331,-118.671028,USA,Non-Unique,
90027,Los Angeles,CA,Los Angeles,34.127194,-118.295647,USA,Non-Unique,
91007,Arcadia,CA,Los Angeles,34.128284,-118.047732,USA,Non-Unique,
90068,Los Angeles,CA,Los Angeles,34.129772,-118.330989,USA,Non-Unique,
91702,Azusa,CA,Los Angeles,34.13529,-117.91506,USA,Non-Unique,
91204,Glendale,CA,Los Angeles,34.136194,-118.260934,USA,Non-Unique,
91006,Arcadia,CA,Los Angeles,34.136258,-118.026704,USA,Non-Unique,
91205,Glendale,CA,Los Angeles,34.13658,-118.245839,USA,Non-Unique,
90041,Los Angeles,CA,Los Angeles,34.137412,-118.207607,USA,Non-Unique,
91608,Universal City,CA,Los Angeles,34.1389,-118.35341,USA,Non-Unique,
91604,Studio City,CA,Los Angeles,34.139082,-118.392751,USA,Non-Unique,
91106,Pasadena,CA,Los Angeles,34.139402,-118.128659,USA,Non-Unique,
91105,Pasadena,CA,Los Angeles,34.13946,-118.166649,USA,Non-Unique,
91010,Duarte,CA,Los Angeles,34.141586,-117.957627,USA,Non-Unique,
91210,Glendale,CA,Los Angeles,34.144557,-118.256507,USA,Non-Unique,
91101,Pasadena,CA,Los Angeles,34.146671,-118.139456,USA,Non-Unique,
91008,Duarte,CA,Los Angeles,34.14695,-117.9709,USA,Non-Unique,
91403,Sherman Oaks,CA,Los Angeles,34.147149,-118.463365,USA,Non-Unique,
91199,Pasadena,CA,Los Angeles,34.1478,-118.1436,USA,Unique,
91423,Sherman Oaks,CA,Los Angeles,34.148617,-118.433298,USA,Non-Unique,
91602,North Hollywood,CA,Los Angeles,34.150818,-118.368159,USA,Non-Unique,
91436,Encino,CA,Los Angeles,34.151729,-118.490755,USA,Non-Unique,
91016,Monrovia,CA,Los Angeles,34.1528,-118.000482,USA,Non-Unique,
91203,Glendale,CA,Los Angeles,34.153338,-118.262974,USA,Non-Unique,
91364,Woodland Hills,CA,Los Angeles,34.153733,-118.593408,USA,Non-Unique,
91356,Tarzana,CA,Los Angeles,34.155097,-118.547553,USA,Non-Unique,
91107,Pasadena,CA,Los Angeles,34.156397,-118.085873,USA,Non-Unique,
91741,Glendora,CA,Los Angeles,34.15653,-117.841605,USA,Non-Unique,
91316,Encino,CA,Los Angeles,34.160236,-118.515472,USA,Non-Unique,
91206,Glendale,CA,Los Angeles,34.160359,-118.213769,USA,Non-Unique,
91104,Pasadena,CA,Los Angeles,34.165383,-118.123752,USA,Non-Unique,
91607,Valley Village,CA,Los Angeles,34.165783,-118.399795,USA,Non-Unique,
91202,Glendale,CA,Los Angeles,34.167926,-118.267539,USA,Non-Unique,
91024,Sierra Madre,CA,Los Angeles,34.168771,-118.050216,USA,Non-Unique,
91601,North Hollywood,CA,Los Angeles,34.1692,-118.372498,USA,Non-Unique,
91103,Pasadena,CA,Los Angeles,34.169538,-118.164941,USA,Non-Unique,
91506,Burbank,CA,Los Angeles,34.169706,-118.323548,USA,Non-Unique,
91201,Glendale,CA,Los Angeles,34.17051,-118.289463,USA,Non-Unique,
91505,Burbank,CA,Los Angeles,34.173885,-118.346937,USA,Non-Unique,
91502,Burbank,CA,Los Angeles,34.177267,-118.31003,USA,Non-Unique,
91367,Woodland Hills,CA,Los Angeles,34.178068,-118.615714,USA,Non-Unique,
91401,Van Nuys,CA,Los Angeles,34.178483,-118.431791,USA,Non-Unique,
91411,Van Nuys,CA,Los Angeles,34.178522,-118.459234,USA,Non-Unique,
91207,Glendale,CA,Los Angeles,34.182379,-118.262922,USA,Non-Unique,
91371,Woodland Hills,CA,Los Angeles,34.184616,-118.576125,USA,Non-Unique,
91606,North Hollywood,CA,Los Angeles,34.185767,-118.388324,USA,Non-Unique,
91208,Glendale,CA,Los Angeles,34.185833,-118.239524,USA,Non-Unique,
91001,Altadena,CA,Los Angeles,34.195275,-118.137227,USA,Non-Unique,
91406,Van Nuys,CA,Los Angeles,34.195685,-118.490752,USA,Non-Unique,
91303,Canoga Park,CA,Los Angeles,34.198292,-118.600914,USA,Non-Unique,
91405,Van Nuys,CA,Los Angeles,34.199824,-118.447609,USA,Non-Unique,
91335,Reseda,CA,Los Angeles,34.200175,-118.540958,USA,Non-Unique,
91501,Burbank,CA,Los Angeles,34.200993,-118.292773,USA,Non-Unique,
91504,Burbank,CA,Los Angeles,34.204568,-118.326365,USA,Non-Unique,
91605,North Hollywood,CA,Los Angeles,34.207295,-118.400022,USA,Non-Unique,
91306,Winnetka,CA,Los Angeles,34.209532,-118.577563,USA,Non-Unique,
91020,Montrose,CA,Los Angeles,34.211341,-118.230652,USA,Non-Unique,
91046,Verdugo City,CA,Los Angeles,34.211452,-118.241036,USA,PO Box,
91011,La Canada Flintridge,CA,Los Angeles,34.222261,-118.205369,USA,Non-Unique,
91402,Panorama City,CA,Los Angeles,34.222506,-118.444689,USA,Non-Unique,
91304,Canoga Park,CA,Los Angeles,34.224377,-118.632656,USA,Non-Unique,
91352,Sun Valley,CA,Los Angeles,34.230854,-118.365856,USA,Non-Unique,
91214,La Crescenta,CA,Los Angeles,34.236302,-118.249185,USA,Non-Unique,
91325,Northridge,CA,Los Angeles,34.236683,-118.517588,USA,Non-Unique,
91343,North Hills,CA,Los Angeles,34.237912,-118.482306,USA,Non-Unique,
91324,Northridge,CA,Los Angeles,34.238208,-118.55029,USA,Non-Unique,
91330,Northridge,CA,Los Angeles,34.247532,-118.526076,USA,Non-Unique,
91331,Pacoima,CA,Los Angeles,34.255442,-118.421314,USA,Non-Unique,
91040,Sunland,CA,Los Angeles,34.261962,-118.336078,USA,Non-Unique,
91345,Mission Hills,CA,Los Angeles,34.265878,-118.457241,USA,Non-Unique,
91326,Porter Ranch,CA,Los Angeles,34.281486,-118.556005,USA,Non-Unique,
91340,San Fernando,CA,Los Angeles,34.286689,-118.435078,USA,Non-Unique,
91311,Chatsworth,CA,Los Angeles,34.294142,-118.603883,USA,Non-Unique,
91344,Granada Hills,CA,Los Angeles,34.294615,-118.507001,USA,Non-Unique,
91042,Tujunga,CA,Los Angeles,34.32222,-118.237918,USA,Non-Unique,
91342,Sylmar,CA,Los Angeles,34.326674,-118.382262,USA,Non-Unique,
91321,Newhall,CA,Los Angeles,34.36811,-118.489037,USA,Non-Unique,
91381,Stevenson Ranch,CA,Los Angeles,34.39048,-118.57372,USA,Non-Unique,
91387,Canyon Country,CA,Los Angeles,34.401969,-118.39882,USA,Non-Unique,
93550,Palmdale,CA,Los Angeles,34.408383,-118.123597,USA,Non-Unique,
91355,Valencia,CA,Los Angeles,34.439741,-118.634816,USA,Non-Unique,
91350,Santa Clarita,CA,Los Angeles,34.440891,-118.501748,USA,Non-Unique,
91351,Canyon Country,CA,Los Angeles,34.441427,-118.448088,USA,Non-Unique,
93563,Valyermo,CA,Los Angeles,34.44611,-117.85229,USA,Non-Unique,
91354,Valencia,CA,Los Angeles,34.465755,-118.553789,USA,Non-Unique,
93510,Acton,CA,Los Angeles,34.48319,-118.18583,USA,Non-Unique,
93544,Llano,CA,Los Angeles,34.50583,-117.81784,USA,Non-Unique,
93553,Pearblossom,CA,Los Angeles,34.50638,-117.90979,USA,Non-Unique,
91384,Castaic,CA,Los Angeles,34.506627,-118.699048,USA,Non-Unique,
93543,Littlerock,CA,Los Angeles,34.52279,-117.98732,USA,Non-Unique,
91390,Santa Clarita,CA,Los Angeles,34.545587,-118.420095,USA,Non-Unique,
93552,Palmdale,CA,Los Angeles,34.570867,-118.023744,USA,Non-Unique,
93591,Palmdale,CA,Los Angeles,34.594397,-117.813682,USA,Non-Unique,
93551,Palmdale,CA,Los Angeles,34.60411,-118.239005,USA,Non-Unique,
93532,Lake Hughes,CA,Los Angeles,34.67693,-118.44536,USA,Non-Unique,
93534,Lancaster,CA,Los Angeles,34.713292,-118.15292,USA,Non-Unique,
93535,Lancaster,CA,Los Angeles,34.713656,-117.86466,USA,Non-Unique,
93536,Lancaster,CA,Los Angeles,34.74739,-118.369249,USA,Non-Unique,
93636,Madera,CA,Madera,36.857756,-119.852537,USA,Non-Unique,
93637,Madera,CA,Madera,36.928286,-120.182423,USA,Non-Unique,
93626,Friant,CA,Madera,36.98404,-119.71159,USA,Non-Unique,
93638,Madera,CA,Madera,37.023383,-119.977376,USA,Non-Unique,
93610,Chowchilla,CA,Madera,37.123,-120.26018,USA,Non-Unique,
93639,Madera,CA,Madera,37.160622,-119.945035,USA,PO Box,
93645,O'Neals,CA,Madera,37.163948,-119.665194,USA,Non-Unique,
93643,North Fork,CA,Madera,37.2141,-119.496955,USA,Non-Unique,
93614,Coarsegold,CA,Madera,37.26217,-119.70098,USA,Non-Unique,
93669,Wishon,CA,Madera,37.274585,-119.540624,USA,Non-Unique,
93604,Bass Lake,CA,Madera,37.32467,-119.56625,USA,Non-Unique,
93644,Oakhurst,CA,Madera,37.37586,-119.65238,USA,Non-Unique,
93601,Ahwahnee,CA,Madera,37.379045,-119.736326,USA,Non-Unique,
94965,Sausalito,CA,Marin,37.850417,-122.531423,USA,Non-Unique,
94920,Belvedere Tiburon,CA,Marin,37.885629,-122.46858,USA,Non-Unique,
94941,Mill Valley,CA,Marin,37.886325,-122.562937,USA,Non-Unique,
94970,Stinson Beach,CA,Marin,37.911625,-122.652043,USA,Non-Unique,
94925,Corte Madera,CA,Marin,37.931846,-122.507738,USA,Non-Unique,
94939,Larkspur,CA,Marin,37.936624,-122.534237,USA,Non-Unique,
94964,San Quentin,CA,Marin,37.941571,-122.48436,USA,Non-Unique,
94924,Bolinas,CA,Marin,37.943087,-122.72379,USA,Non-Unique,
94930,Fairfax,CA,Marin,37.943963,-122.616418,USA,Non-Unique,
94904,Greenbrae,CA,Marin,37.945512,-122.56012,USA,Non-Unique,
94957,Ross,CA,Marin,37.963111,-122.563588,USA,PO Box,
94901,San Rafael,CA,Marin,37.978138,-122.497611,USA,Non-Unique,
94960,San Anselmo,CA,Marin,37.995864,-122.577814,USA,Non-Unique,
94973,Woodacre,CA,Marin,38.00532,-122.63811,USA,Non-Unique,
94963,San Geronimo,CA,Marin,38.00659,-122.66309,USA,Non-Unique,
94933,Forest Knolls,CA,Marin,38.012599,-122.687478,USA,Non-Unique,
94903,San Rafael,CA,Marin,38.022366,-122.555605,USA,Non-Unique,
94938,Lagunitas,CA,Marin,38.022974,-122.699183,USA,Non-Unique,
94950,Olema,CA,Marin,38.046703,-122.769854,USA,PO Box,
94946,Nicasio,CA,Marin,38.06159,-122.6986,USA,Non-Unique,
94949,Novato,CA,Marin,38.06372,-122.541739,USA,Non-Unique,
94912,San Rafael,CA,Marin,38.068036,-122.740988,USA,PO Box,
94913,San Rafael,CA,Marin,38.068036,-122.740988,USA,PO Box,
94914,Kentfield,CA,Marin,38.068036,-122.740988,USA,PO Box,
94942,Mill Valley,CA,Marin,38.068036,-122.740988,USA,PO Box,
94966,Sausalito,CA,Marin,38.068036,-122.740988,USA,PO Box,
94974,San Quentin,CA,Marin,38.068036,-122.740988,USA,Non-Unique,
94976,Corte Madera,CA,Marin,38.068036,-122.740988,USA,PO Box,
94977,Larkspur,CA,Marin,38.068036,-122.740988,USA,PO Box,
94978,Fairfax,CA,Marin,38.068036,-122.740988,USA,PO Box,
94979,San Anselmo,CA,Marin,38.068036,-122.740988,USA,PO Box,
94915,San Rafael,CA,Marin,38.07392,-122.55944,USA,PO Box,
94956,Point Reyes Station,CA,Marin,38.0847,-122.80918,USA,Non-Unique,
94947,Novato,CA,Marin,38.09502,-122.620893,USA,Non-Unique,
94937,Inverness,CA,Marin,38.11649,-122.930351,USA,Non-Unique,
94998,Novato,CA,Marin,38.117269,-122.568442,USA,Unique,
94945,Novato,CA,Marin,38.134068,-122.52719,USA,Non-Unique,
94948,Novato,CA,Marin,38.148858,-122.573745,USA,PO Box,
94940,Marshall,CA,Marin,38.17087,-122.823185,USA,Non-Unique,
94971,Tomales,CA,Marin,38.242733,-122.91446,USA,Non-Unique,
94929,Dillon Beach,CA,Marin,38.25242,-122.962717,USA,Non-Unique,
94952,Petaluma,CA,Marin,38.265366,-122.822588,USA,Non-Unique,
93653,Raymond,CA,Mariposa,37.242121,-119.859865,USA,Non-Unique,
95306,Catheys Valley,CA,Mariposa,37.36553,-120.160164,USA,Non-Unique,
95325,Hornitos,CA,Mariposa,37.466072,-120.225948,USA,Non-Unique,
95338,Mariposa,CA,Mariposa,37.508765,-119.982496,USA,Non-Unique,
93623,Fish Camp,CA,Mariposa,37.51165,-119.652872,USA,Non-Unique,
95345,Midpines,CA,Mariposa,37.564369,-119.962569,USA,Non-Unique,
95389,Yosemite National Park,CA,Mariposa,37.63791,-119.694652,USA,Non-Unique,
95318,El Portal,CA,Mariposa,37.67465,-119.78406,USA,Non-Unique,
95311,Coulterville,CA,Mariposa,37.700116,-120.155251,USA,Non-Unique,
95445,Gualala,CA,Mendocino,38.836933,-123.527323,USA,Non-Unique,
95494,Yorkville,CA,Mendocino,38.889651,-123.337821,USA,Non-Unique,
95468,Point Arena,CA,Mendocino,38.919145,-123.540572,USA,Non-Unique,
95459,Manchester,CA,Mendocino,38.950236,-123.661507,USA,Non-Unique,
95449,Hopland,CA,Mendocino,38.965637,-123.138986,USA,Non-Unique,
95415,Boonville,CA,Mendocino,39.046943,-123.418728,USA,Non-Unique,
95466,Philo,CA,Mendocino,39.056598,-123.525375,USA,Non-Unique,
95432,Elk,CA,Mendocino,39.076371,-123.618031,USA,Non-Unique,
95481,Talmage,CA,Mendocino,39.127247,-123.164533,USA,PO Box,
95482,Ukiah,CA,Mendocino,39.15017,-123.20778,USA,Non-Unique,
95463,Navarro,CA,Mendocino,39.186791,-123.558382,USA,Non-Unique,
95418,Calpella,CA,Mendocino,39.213324,-123.277143,USA,PO Box,
95410,Albion,CA,Mendocino,39.22351,-123.76863,USA,Non-Unique,
95427,Comptche,CA,Mendocino,39.238683,-123.58761,USA,Non-Unique,
95456,Little River,CA,Mendocino,39.267235,-123.696392,USA,Non-Unique,
95470,Redwood Valley,CA,Mendocino,39.26739,-123.20612,USA,Non-Unique,
95460,Mendocino,CA,Mendocino,39.319949,-123.734377,USA,Non-Unique,
95469,Potter Valley,CA,Mendocino,39.360935,-123.106751,USA,Non-Unique,
95420,Caspar,CA,Mendocino,39.367286,-123.8042,USA,Non-Unique,
95437,Fort Bragg,CA,Mendocino,39.4,-123.81667,USA,Non-Unique,
95490,Willits,CA,Mendocino,39.525958,-123.36573,USA,Non-Unique,
95488,Westport,CA,Mendocino,39.660425,-123.786385,USA,Non-Unique,
95454,Laytonville,CA,Mendocino,39.6723,-123.49375,USA,Non-Unique,
95417,Branscomb,CA,Mendocino,39.677625,-123.64746,USA,Non-Unique,
95429,Dos Rios,CA,Mendocino,39.71682,-123.35335,USA,Non-Unique,
95428,Covelo,CA,Mendocino,39.835096,-123.148437,USA,Non-Unique,
95585,Leggett,CA,Mendocino,39.873214,-123.721407,USA,Non-Unique,
95587,Piercy,CA,Mendocino,39.96626,-123.7953,USA,Non-Unique,
93665,South Dos Palos,CA,Merced,36.96439,-120.65324,USA,PO Box,
93620,Dos Palos,CA,Merced,37.073301,-120.623363,USA,Non-Unique,
93635,Los Banos,CA,Merced,37.103768,-120.847479,USA,Non-Unique,
95317,El Nido,CA,Merced,37.125735,-120.504934,USA,Non-Unique,
95322,Gustine,CA,Merced,37.166199,-121.024432,USA,Non-Unique,
93661,Santa Rita Park,CA,Merced,37.186872,-120.650351,USA,PO Box,
95343,Merced,CA,Merced,37.186872,-120.650351,USA,Non-Unique,
95341,Merced,CA,Merced,37.231045,-120.501072,USA,Non-Unique,
95333,Le Grand,CA,Merced,37.242232,-120.240442,USA,Non-Unique,
95365,Planada,CA,Merced,37.289085,-120.317156,USA,Non-Unique,
95301,Atwater,CA,Merced,37.317255,-120.647347,USA,Non-Unique,
95374,Stevinson,CA,Merced,37.324536,-120.864936,USA,Non-Unique,
95340,Merced,CA,Merced,37.345785,-120.42415,USA,Non-Unique,
95334,Livingston,CA,Merced,37.347307,-120.742627,USA,Non-Unique,
95344,Merced,CA,Merced,37.378234,-120.617808,USA,PO Box,
95388,Winton,CA,Merced,37.38593,-120.61792,USA,Non-Unique,
95348,Merced,CA,Merced,37.392287,-120.498299,USA,Non-Unique,
95324,Hilmar,CA,Merced,37.394536,-120.890747,USA,Non-Unique,
95312,Cressey,CA,Merced,37.41966,-120.66742,USA,PO Box,
95315,Delhi,CA,Merced,37.429369,-120.762047,USA,Non-Unique,
95303,Ballico,CA,Merced,37.45438,-120.70603,USA,Non-Unique,
95369,Snelling,CA,Merced,37.483708,-120.463408,USA,Non-Unique,
96116,Likely,CA,Modoc,41.232908,-120.507888,USA,Non-Unique,
96054,Lookout,CA,Modoc,41.234693,-121.215582,USA,Non-Unique,
96006,Adin,CA,Modoc,41.236677,-120.932949,USA,Non-Unique,
96110,Eagleville,CA,Modoc,41.31628,-120.11577,USA,PO Box,
96104,Cedarville,CA,Modoc,41.42426,-120.111396,USA,Non-Unique,
96101,Alturas,CA,Modoc,41.433984,-120.640865,USA,Non-Unique,
96015,Canby,CA,Modoc,41.458738,-120.80293,USA,Non-Unique,
96108,Davis Creek,CA,Modoc,41.73322,-120.3719,USA,Non-Unique,
96115,Lake City,CA,Modoc,41.763674,-120.179132,USA,Non-Unique,
96112,Fort Bidwell,CA,Modoc,41.86045,-120.15134,USA,Non-Unique,
93514,Bishop,CA,Mono,37.491769,-118.389367,USA,Non-Unique,
93546,Mammoth Lakes,CA,Mono,37.609434,-118.865636,USA,Non-Unique,
93529,June Lake,CA,Mono,37.78854,-119.07459,USA,Non-Unique,
93512,Benton,CA,Mono,37.8191,-118.47651,USA,Non-Unique,
93541,Lee Vining,CA,Mono,37.97823,-119.130361,USA,Non-Unique,
93517,Bridgeport,CA,Mono,38.248505,-119.19876,USA,Non-Unique,
96107,Coleville,CA,Mono,38.533336,-119.485034,USA,Non-Unique,
96133,Topaz,CA,Mono,38.617086,-119.506094,USA,Non-Unique,
93451,San Miguel,CA,Monterey,35.75327,-120.69251,USA,Non-Unique,
93426,Bradley,CA,Monterey,35.907585,-120.937371,USA,Non-Unique,
93932,Lockwood,CA,Monterey,35.949963,-121.062554,USA,Non-Unique,
93450,San Ardo,CA,Monterey,35.982551,-120.828342,USA,Non-Unique,
93928,Jolon,CA,Monterey,36.038868,-121.244009,USA,PO Box,
93954,San Lucas,CA,Monterey,36.12835,-121.02173,USA,PO Box,
93930,King City,CA,Monterey,36.201898,-121.05232,USA,Non-Unique,
93920,Big Sur,CA,Monterey,36.25234,-121.78267,USA,Non-Unique,
93927,Greenfield,CA,Monterey,36.3208,-121.24381,USA,Non-Unique,
93902,Salinas,CA,Monterey,36.35433,-121.132928,USA,PO Box,
93912,Salinas,CA,Monterey,36.35433,-121.132928,USA,PO Box,
93915,Salinas,CA,Monterey,36.35433,-121.132928,USA,PO Box,
93942,Monterey,CA,Monterey,36.35433,-121.132928,USA,PO Box,
93924,Carmel Valley,CA,Monterey,36.446043,-121.666999,USA,Non-Unique,
93923,Carmel,CA,Monterey,36.448672,-121.849502,USA,Non-Unique,
93960,Soledad,CA,Monterey,36.449485,-121.368127,USA,Non-Unique,
93926,Gonzales,CA,Monterey,36.502102,-121.408607,USA,Non-Unique,
93922,Carmel,CA,Monterey,36.543261,-121.926315,USA,PO Box,
93921,Carmel,CA,Monterey,36.549729,-121.922515,USA,PO Box,
93940,Monterey,CA,Monterey,36.57485,-121.840727,USA,Non-Unique,
93953,Pebble Beach,CA,Monterey,36.5831,-121.936365,USA,Non-Unique,
93925,Chualar,CA,Monterey,36.583988,-121.4516,USA,Non-Unique,
93943,Monterey,CA,Monterey,36.597004,-121.874136,USA,Non-Unique,
93944,Monterey,CA,Monterey,36.606225,-121.908915,USA,Non-Unique,
93955,Seaside,CA,Monterey,36.61107,-121.85162,USA,Non-Unique,
93950,Pacific Grove,CA,Monterey,36.61774,-121.91662,USA,Non-Unique,
93962,Spreckels,CA,Monterey,36.62472,-121.64648,USA,PO Box,
93901,Salinas,CA,Monterey,36.64152,-121.622188,USA,Non-Unique,
93908,Salinas,CA,Monterey,36.651745,-121.599444,USA,Non-Unique,
93905,Salinas,CA,Monterey,36.682888,-121.612105,USA,Non-Unique,
93933,Marina,CA,Monterey,36.6844,-121.80217,USA,Non-Unique,
93906,Salinas,CA,Monterey,36.722713,-121.63365,USA,Non-Unique,
93907,Salinas,CA,Monterey,36.756306,-121.67031,USA,Non-Unique,
95012,Castroville,CA,Monterey,36.782556,-121.735759,USA,Non-Unique,
95039,Moss Landing,CA,Monterey,36.797555,-121.76066,USA,Non-Unique,
95004,Aromas,CA,Monterey,36.864154,-121.647608,USA,Non-Unique,
94503,American Canyon,CA,Napa,38.186532,-122.264069,USA,Non-Unique,
94559,Napa,CA,Napa,38.245724,-122.313405,USA,Non-Unique,
94599,Yountville,CA,Napa,38.409878,-122.361511,USA,Non-Unique,
94562,Oakville,CA,Napa,38.437887,-122.399101,USA,PO Box,
94558,Napa,CA,Napa,38.442011,-122.23832,USA,Non-Unique,
94573,Rutherford,CA,Napa,38.458864,-122.428831,USA,PO Box,
94581,Napa,CA,Napa,38.509569,-122.3539,USA,PO Box,
94574,Saint Helena,CA,Napa,38.542448,-122.419923,USA,Non-Unique,
94576,Deer Park,CA,Napa,38.549422,-122.476382,USA,Non-Unique,
94508,Angwin,CA,Napa,38.576618,-122.444388,USA,Non-Unique,
94515,Calistoga,CA,Napa,38.634822,-122.615051,USA,Non-Unique,
94567,Pope Valley,CA,Napa,38.706906,-122.393997,USA,Non-Unique,
95949,Grass Valley,CA,Nevada,39.110986,-121.128336,USA,Non-Unique,
95712,Chicago Park,CA,Nevada,39.167276,-120.964275,USA,PO Box,
95977,Smartsville,CA,Nevada,39.19443,-121.314435,USA,Non-Unique,
95946,Penn Valley,CA,Nevada,39.19518,-121.19412,USA,Non-Unique,
95945,Grass Valley,CA,Nevada,39.196288,-120.95855,USA,Non-Unique,
95975,Rough And Ready,CA,Nevada,39.225477,-121.148643,USA,Non-Unique,
95924,Cedar Ridge,CA,Nevada,39.26599,-120.64145,USA,PO Box,
96162,Truckee,CA,Nevada,39.26599,-120.64145,USA,Non-Unique,
95959,Nevada City,CA,Nevada,39.299606,-120.887965,USA,Non-Unique,
96161,Truckee,CA,Nevada,39.313089,-120.207783,USA,Non-Unique,
95728,Soda Springs,CA,Nevada,39.32324,-120.37993,USA,Non-Unique,
95986,Washington,CA,Nevada,39.352343,-120.79118,USA,PO Box,
95960,North San Juan,CA,Nevada,39.36934,-121.10384,USA,Non-Unique,
96160,Truckee,CA,Nevada,39.3781,-120.186383,USA,PO Box,
96111,Floriston,CA,Nevada,39.392752,-120.021212,USA,Non-Unique,
92674,San Clemente,CA,Orange,33.438428,-117.623131,USA,PO Box,
92624,Capistrano Beach,CA,Orange,33.455277,-117.662824,USA,Non-Unique,
92673,San Clemente,CA,Orange,33.459745,-117.625076,USA,Non-Unique,
92629,Dana Point,CA,Orange,33.485903,-117.696366,USA,Non-Unique,
92675,San Juan Capistrano,CA,Orange,33.501773,-117.608674,USA,Non-Unique,
92651,Laguna Beach,CA,Orange,33.520941,-117.741315,USA,Non-Unique,
92677,Laguna Niguel,CA,Orange,33.532817,-117.710262,USA,Non-Unique,
92693,San Juan Capistrano,CA,Orange,33.555323,-117.564,USA,PO Box,
92694,Ladera Ranch,CA,Orange,33.57086,-117.63561,USA,Non-Unique,
92656,Aliso Viejo,CA,Orange,33.576205,-117.730364,USA,Non-Unique,
92653,Laguna Hills,CA,Orange,33.595714,-117.715535,USA,Non-Unique,
92657,Newport Coast,CA,Orange,33.597128,-117.835987,USA,Non-Unique,
92625,Corona Del Mar,CA,Orange,33.599956,-117.865325,USA,Non-Unique,
92654,Laguna Hills,CA,Orange,33.601673,-117.716885,USA,PO Box,
92691,Mission Viejo,CA,Orange,33.605527,-117.667923,USA,Non-Unique,
92692,Mission Viejo,CA,Orange,33.606497,-117.643112,USA,Non-Unique,
92662,Newport Beach,CA,Orange,33.606521,-117.89274,USA,Non-Unique,
92659,Newport Beach,CA,Orange,33.611198,-117.886731,USA,PO Box,
92679,Trabuco Canyon,CA,Orange,33.612322,-117.595826,USA,Non-Unique,
92637,Laguna Woods,CA,Orange,33.612925,-117.731443,USA,Non-Unique,
92661,Newport Beach,CA,Orange,33.617009,-117.92944,USA,Non-Unique,
92663,Newport Beach,CA,Orange,33.61837,-117.91709,USA,Non-Unique,
92688,Rancho Santa Margarita,CA,Orange,33.619672,-117.612087,USA,Non-Unique,
92660,Newport Beach,CA,Orange,33.637771,-117.875189,USA,Non-Unique,
90622,Buena Park,CA,Orange,33.640302,-117.769442,USA,PO Box,
90624,Buena Park,CA,Orange,33.640302,-117.769442,USA,PO Box,
90632,La Habra,CA,Orange,33.640302,-117.769442,USA,PO Box,
90633,La Habra,CA,Orange,33.640302,-117.769442,USA,PO Box,
90721,Los Alamitos,CA,Orange,33.640302,-117.769442,USA,PO Box,
92605,Huntington Beach,CA,Orange,33.640302,-117.769442,USA,PO Box,
92607,Laguna Niguel,CA,Orange,33.640302,-117.769442,USA,PO Box,
92615,Huntington Beach,CA,Orange,33.640302,-117.769442,USA,PO Box,
92616,Irvine,CA,Orange,33.640302,-117.769442,USA,PO Box,
92628,Costa Mesa,CA,Orange,33.640302,-117.769442,USA,PO Box,
92650,East Irvine,CA,Orange,33.640302,-117.769442,USA,PO Box,
92652,Laguna Beach,CA,Orange,33.640302,-117.769442,USA,PO Box,
92658,Newport Beach,CA,Orange,33.640302,-117.769442,USA,PO Box,
92684,Westminster,CA,Orange,33.640302,-117.769442,USA,PO Box,
92685,Westminster,CA,Orange,33.640302,-117.769442,USA,PO Box,
92690,Mission Viejo,CA,Orange,33.640302,-117.769442,USA,PO Box,
92697,Irvine,CA,Orange,33.640302,-117.769442,USA,Non-Unique,
92698,Aliso Viejo,CA,Orange,33.640302,-117.769442,USA,Unique,
92702,Santa Ana,CA,Orange,33.640302,-117.769442,USA,PO Box,
92711,Santa Ana,CA,Orange,33.640302,-117.769442,USA,PO Box,
92712,Santa Ana,CA,Orange,33.640302,-117.769442,USA,PO Box,
92728,Fountain Valley,CA,Orange,33.640302,-117.769442,USA,PO Box,
92735,Santa Ana,CA,Orange,33.640302,-117.769442,USA,PO Box,
92781,Tustin,CA,Orange,33.640302,-117.769442,USA,PO Box,
92799,Santa Ana,CA,Orange,33.640302,-117.769442,USA,Non-Unique,
92803,Anaheim,CA,Orange,33.640302,-117.769442,USA,PO Box,
92811,Atwood,CA,Orange,33.640302,-117.769442,USA,PO Box,
92812,Anaheim,CA,Orange,33.640302,-117.769442,USA,PO Box,
92814,Anaheim,CA,Orange,33.640302,-117.769442,USA,PO Box,
92815,Anaheim,CA,Orange,33.640302,-117.769442,USA,PO Box,
92816,Anaheim,CA,Orange,33.640302,-117.769442,USA,PO Box,
92817,Anaheim,CA,Orange,33.640302,-117.769442,USA,PO Box,
92822,Brea,CA,Orange,33.640302,-117.769442,USA,PO Box,
92825,Anaheim,CA,Orange,33.640302,-117.769442,USA,PO Box,
92834,Fullerton,CA,Orange,33.640302,-117.769442,USA,PO Box,
92836,Fullerton,CA,Orange,33.640302,-117.769442,USA,PO Box,
92837,Fullerton,CA,Orange,33.640302,-117.769442,USA,PO Box,
92838,Fullerton,CA,Orange,33.640302,-117.769442,USA,PO Box,
92842,Garden Grove,CA,Orange,33.640302,-117.769442,USA,PO Box,
92846,Garden Grove,CA,Orange,33.640302,-117.769442,USA,PO Box,
92850,Anaheim,CA,Orange,33.640302,-117.769442,USA,Unique,
92856,Orange,CA,Orange,33.640302,-117.769442,USA,PO Box,
92857,Orange,CA,Orange,33.640302,-117.769442,USA,PO Box,
92859,Orange,CA,Orange,33.640302,-117.769442,USA,PO Box,
92862,Orange,CA,Orange,33.640302,-117.769442,USA,Non-Unique,
92863,Orange,CA,Orange,33.640302,-117.769442,USA,PO Box,
92864,Orange,CA,Orange,33.640302,-117.769442,USA,PO Box,
92871,Placentia,CA,Orange,33.640302,-117.769442,USA,PO Box,
92885,Yorba Linda,CA,Orange,33.640302,-117.769442,USA,PO Box,
92899,Anaheim,CA,Orange,33.640302,-117.769442,USA,Non-Unique,
92630,Lake Forest,CA,Orange,33.64079,-117.693074,USA,Non-Unique,
92618,Irvine,CA,Orange,33.641579,-117.73269,USA,Non-Unique,
92617,Irvine,CA,Orange,33.642513,-117.841688,USA,Non-Unique,
92627,Costa Mesa,CA,Orange,33.647764,-117.919761,USA,Non-Unique,
92603,Irvine,CA,Orange,33.648871,-117.764637,USA,Non-Unique,
92612,Irvine,CA,Orange,33.65844,-117.826009,USA,Non-Unique,
92609,El Toro,CA,Orange,33.660297,-117.999227,USA,PO Box,
92646,Huntington Beach,CA,Orange,33.66205,-117.968459,USA,Non-Unique,
92619,Irvine,CA,Orange,33.66985,-117.765939,USA,PO Box,
92626,Costa Mesa,CA,Orange,33.678399,-117.911715,USA,Non-Unique,
92648,Huntington Beach,CA,Orange,33.67901,-118.014603,USA,Non-Unique,
92678,Trabuco Canyon,CA,Orange,33.680226,-117.526145,USA,PO Box,
92614,Irvine,CA,Orange,33.685319,-117.827913,USA,Non-Unique,
92610,Foothill Ranch,CA,Orange,33.68641,-117.66088,USA,Non-Unique,
92623,Irvine,CA,Orange,33.686519,-117.830788,USA,PO Box,
92604,Irvine,CA,Orange,33.690475,-117.790059,USA,Non-Unique,
92606,Irvine,CA,Orange,33.701121,-117.817338,USA,Non-Unique,
92705,Santa Ana,CA,Orange,33.707568,-117.845746,USA,Non-Unique,
92707,Santa Ana,CA,Orange,33.709935,-117.870431,USA,Non-Unique,
92708,Fountain Valley,CA,Orange,33.710582,-117.951129,USA,Non-Unique,
92620,Irvine,CA,Orange,33.712629,-117.751372,USA,Non-Unique,
90742,Sunset Beach,CA,Orange,33.71641,-118.06895,USA,Non-Unique,
92704,Santa Ana,CA,Orange,33.721131,-117.90511,USA,Non-Unique,
92647,Huntington Beach,CA,Orange,33.723228,-118.008692,USA,Non-Unique,
92649,Huntington Beach,CA,Orange,33.72524,-118.051579,USA,Non-Unique,
90743,Surfside,CA,Orange,33.727796,-118.082286,USA,Non-Unique,
92780,Tustin,CA,Orange,33.73401,-117.819157,USA,Non-Unique,
92782,Tustin,CA,Orange,33.739689,-117.78471,USA,Non-Unique,
90740,Seal Beach,CA,Orange,33.74141,-118.10479,USA,Non-Unique,
92655,Midway City,CA,Orange,33.745101,-117.984872,USA,Non-Unique,
92676,Silverado,CA,Orange,33.74613,-117.63699,USA,Non-Unique,
92703,Santa Ana,CA,Orange,33.747615,-117.906761,USA,Non-Unique,
92701,Santa Ana,CA,Orange,33.74822,-117.858473,USA,Non-Unique,
92683,Westminster,CA,Orange,33.75245,-117.993904,USA,Non-Unique,
92602,Irvine,CA,Orange,33.757245,-117.750414,USA,Non-Unique,
92843,Garden Grove,CA,Orange,33.763928,-117.93138,USA,Non-Unique,
92706,Santa Ana,CA,Orange,33.765301,-117.881976,USA,Non-Unique,
92844,Garden Grove,CA,Orange,33.76548,-117.969509,USA,Non-Unique,
92845,Garden Grove,CA,Orange,33.783064,-118.026268,USA,Non-Unique,
92866,Orange,CA,Orange,33.784615,-117.844775,USA,Non-Unique,
92841,Garden Grove,CA,Orange,33.786846,-117.98202,USA,Non-Unique,
92840,Garden Grove,CA,Orange,33.787165,-117.931889,USA,Non-Unique,
92868,Orange,CA,Orange,33.788145,-117.87655,USA,Non-Unique,
90720,Los Alamitos,CA,Orange,33.795012,-118.062692,USA,Non-Unique,
92867,Orange,CA,Orange,33.80098,-117.843772,USA,Non-Unique,
90680,Stanton,CA,Orange,33.80252,-117.99312,USA,Non-Unique,
92802,Anaheim,CA,Orange,33.808271,-117.923655,USA,Non-Unique,
92869,Orange,CA,Orange,33.808485,-117.791041,USA,Non-Unique,
90630,Cypress,CA,Orange,33.81696,-118.03729,USA,Non-Unique,
92861,Villa Park,CA,Orange,33.81766,-117.810014,USA,Non-Unique,
92804,Anaheim,CA,Orange,33.818251,-117.974997,USA,Non-Unique,
92865,Orange,CA,Orange,33.827031,-117.851196,USA,Non-Unique,
92805,Anaheim,CA,Orange,33.830209,-117.90611,USA,Non-Unique,
92809,Anaheim,CA,Orange,33.835293,-117.914504,USA,Non-Unique,
92806,Anaheim,CA,Orange,33.837961,-117.870495,USA,Non-Unique,
92801,Anaheim,CA,Orange,33.844983,-117.952151,USA,Non-Unique,
90620,Buena Park,CA,Orange,33.846302,-118.012225,USA,Non-Unique,
90623,La Palma,CA,Orange,33.8464,-118.04673,USA,Non-Unique,
92807,Anaheim,CA,Orange,33.848733,-117.788357,USA,Non-Unique,
92808,Anaheim,CA,Orange,33.856495,-117.74021,USA,Non-Unique,
92832,Fullerton,CA,Orange,33.868649,-117.929055,USA,Non-Unique,
90621,Buena Park,CA,Orange,33.874224,-117.993368,USA,Non-Unique,
92833,Fullerton,CA,Orange,33.879309,-117.961743,USA,Non-Unique,
92831,Fullerton,CA,Orange,33.879768,-117.896341,USA,Non-Unique,
92870,Placentia,CA,Orange,33.881158,-117.854783,USA,Non-Unique,
92887,Yorba Linda,CA,Orange,33.885514,-117.730164,USA,Non-Unique,
92886,Yorba Linda,CA,Orange,33.896339,-117.796416,USA,Non-Unique,
92835,Fullerton,CA,Orange,33.901886,-117.916639,USA,Non-Unique,
92821,Brea,CA,Orange,33.927561,-117.887086,USA,Non-Unique,
92823,Brea,CA,Orange,33.928202,-117.809353,USA,Non-Unique,
90631,La Habra,CA,Orange,33.942708,-117.952483,USA,Non-Unique,
95661,Roseville,CA,Placer,38.74073,-121.25603,USA,Non-Unique,
95746,Granite Bay,CA,Placer,38.756614,-121.183436,USA,Non-Unique,
95678,Roseville,CA,Placer,38.764073,-121.287515,USA,Non-Unique,
95747,Roseville,CA,Placer,38.779875,-121.335559,USA,Non-Unique,
95677,Rocklin,CA,Placer,38.801233,-121.230374,USA,Non-Unique,
95650,Loomis,CA,Placer,38.814428,-121.176622,USA,Non-Unique,
95765,Rocklin,CA,Placer,38.819795,-121.277439,USA,Non-Unique,
95663,Penryn,CA,Placer,38.852288,-121.180531,USA,Non-Unique,
95658,Newcastle,CA,Placer,38.87407,-121.13328,USA,Non-Unique,
95603,Auburn,CA,Placer,38.915869,-121.080284,USA,Non-Unique,
95648,Lincoln,CA,Placer,38.929305,-121.327143,USA,Non-Unique,
95681,Sheridan,CA,Placer,38.989408,-121.346893,USA,Non-Unique,
96142,Tahoma,CA,Placer,38.998714,-120.107955,USA,Non-Unique,
95703,Applegate,CA,Placer,39.00073,-120.99244,USA,Non-Unique,
95722,Meadow Vista,CA,Placer,39.001448,-121.034843,USA,Non-Unique,
95602,Auburn,CA,Placer,39.014933,-121.07047,USA,Non-Unique,
95631,Foresthill,CA,Placer,39.024453,-120.862663,USA,Non-Unique,
95736,Weimar,CA,Placer,39.038809,-120.97753,USA,PO Box,
96141,Homewood,CA,Placer,39.08685,-120.16019,USA,Non-Unique,
95713,Colfax,CA,Placer,39.126473,-120.863763,USA,Non-Unique,
96145,Tahoe City,CA,Placer,39.17213,-120.1388,USA,Non-Unique,
96146,Olympic Valley,CA,Placer,39.175186,-120.19544,USA,Non-Unique,
95717,Gold Run,CA,Placer,39.18073,-120.85577,USA,Non-Unique,
95714,Dutch Flat,CA,Placer,39.196515,-120.829762,USA,Non-Unique,
95701,Alta,CA,Placer,39.214162,-120.795987,USA,Non-Unique,
96140,Carnelian Bay,CA,Placer,39.229978,-120.066235,USA,Non-Unique,
95604,Auburn,CA,Placer,39.243304,-120.071406,USA,PO Box,
96148,Tahoe Vista,CA,Placer,39.24823,-120.05356,USA,Non-Unique,
96143,Kings Beach,CA,Placer,39.24886,-120.0202,USA,Non-Unique,
95715,Emigrant Gap,CA,Placer,39.29684,-120.67271,USA,Non-Unique,
95724,Norden,CA,Placer,39.311704,-120.328125,USA,Non-Unique,
95981,Strawberry Valley,CA,Plumas,39.577329,-121.101562,USA,Non-Unique,
96106,Clio,CA,Plumas,39.754627,-120.595092,USA,Non-Unique,
96103,Blairsden-Graeagle,CA,Plumas,39.766287,-120.618552,USA,Non-Unique,
96129,Beckwourth,CA,Plumas,39.772064,-120.405095,USA,Non-Unique,
96105,Chilcoot,CA,Plumas,39.794136,-120.132207,USA,Non-Unique,
96122,Portola,CA,Plumas,39.800456,-120.542224,USA,Non-Unique,
96135,Vinton,CA,Plumas,39.80435,-120.17826,USA,Non-Unique,
95956,Meadow Valley,CA,Plumas,39.896259,-121.096023,USA,Non-Unique,
95980,Storrie,CA,Plumas,39.918503,-121.337404,USA,PO Box,
95971,Quincy,CA,Plumas,39.93103,-120.95478,USA,Non-Unique,
95915,Belden,CA,Plumas,40.00794,-121.2382,USA,Non-Unique,
95984,Twain,CA,Plumas,40.03504,-121.0418,USA,Non-Unique,
95983,Taylorsville,CA,Plumas,40.05837,-120.83886,USA,Non-Unique,
95934,Crescent Mills,CA,Plumas,40.086309,-120.924541,USA,Non-Unique,
95947,Greenville,CA,Plumas,40.124832,-120.87884,USA,Non-Unique,
95923,Canyon Dam,CA,Plumas,40.17006,-121.07671,USA,Non-Unique,
96114,Janesville,CA,Plumas,40.298255,-120.506184,USA,Non-Unique,
96020,Chester,CA,Plumas,40.30159,-121.23395,USA,Non-Unique,
96137,Westwood,CA,Plumas,40.303792,-121.022584,USA,Non-Unique,
92590,Temecula,CA,Riverside,33.480536,-117.227005,USA,Non-Unique,
92592,Temecula,CA,Riverside,33.511218,-117.042389,USA,Non-Unique,
92536,Aguanga,CA,Riverside,33.519176,-116.802625,USA,Non-Unique,
92554,Moreno Valley,CA,Riverside,33.521993,-115.915905,USA,PO Box,
92539,Anza,CA,Riverside,33.524988,-116.679174,USA,Non-Unique,
92591,Temecula,CA,Riverside,33.535276,-117.104785,USA,Non-Unique,
92254,Mecca,CA,Riverside,33.545034,-116.018731,USA,Non-Unique,
92562,Murrieta,CA,Riverside,33.548299,-117.344739,USA,Non-Unique,
92563,Murrieta,CA,Riverside,33.581046,-117.14719,USA,Non-Unique,
92226,Blythe,CA,Riverside,33.59869,-114.652517,USA,PO Box,
92595,Wildomar,CA,Riverside,33.59891,-117.28004,USA,Non-Unique,
92544,Hemet,CA,Riverside,33.617074,-116.786275,USA,Non-Unique,
92530,Lake Elsinore,CA,Riverside,33.650799,-117.372457,USA,Non-Unique,
92584,Menifee,CA,Riverside,33.658592,-117.173618,USA,Non-Unique,
92261,Palm Desert,CA,Riverside,33.660374,-116.408249,USA,PO Box,
92543,Hemet,CA,Riverside,33.667301,-116.963506,USA,Non-Unique,
92253,La Quinta,CA,Riverside,33.670978,-116.259176,USA,Non-Unique,
92236,Coachella,CA,Riverside,33.6803,-116.17389,USA,Non-Unique,
92260,Palm Desert,CA,Riverside,33.680623,-116.402695,USA,Non-Unique,
92532,Lake Elsinore,CA,Riverside,33.692675,-117.302951,USA,Non-Unique,
92587,Menifee,CA,Riverside,33.692805,-117.250024,USA,Non-Unique,
92561,Mountain Center,CA,Riverside,33.70419,-116.72585,USA,Non-Unique,
92586,Menifee,CA,Riverside,33.708976,-117.198846,USA,Non-Unique,
92201,Indio,CA,Riverside,33.710984,-116.204844,USA,Non-Unique,
92596,Winchester,CA,Riverside,33.71691,-117.07357,USA,Non-Unique,
92210,Indian Wells,CA,Riverside,33.71863,-116.30834,USA,Non-Unique,
92545,Hemet,CA,Riverside,33.729853,-117.03406,USA,Non-Unique,
92225,Blythe,CA,Riverside,33.736458,-114.687973,USA,Non-Unique,
92270,Rancho Mirage,CA,Riverside,33.73974,-116.41279,USA,Non-Unique,
92549,Idyllwild,CA,Riverside,33.741769,-116.721444,USA,Non-Unique,
92548,Homeland,CA,Riverside,33.74477,-117.1084,USA,Non-Unique,
92585,Menifee,CA,Riverside,33.746707,-117.172142,USA,Non-Unique,
92883,Corona,CA,Riverside,33.752748,-117.474266,USA,Non-Unique,
92202,Indio,CA,Riverside,33.752886,-116.055617,USA,PO Box,
92235,Cathedral City,CA,Riverside,33.752886,-116.055617,USA,PO Box,
92255,Palm Desert,CA,Riverside,33.752886,-116.055617,USA,PO Box,
92502,Riverside,CA,Riverside,33.752886,-116.055617,USA,PO Box,
92513,Riverside,CA,Riverside,33.752886,-116.055617,USA,PO Box,
92514,Riverside,CA,Riverside,33.752886,-116.055617,USA,PO Box,
92515,Riverside,CA,Riverside,33.752886,-116.055617,USA,PO Box,
92516,Riverside,CA,Riverside,33.752886,-116.055617,USA,PO Box,
92517,Riverside,CA,Riverside,33.752886,-116.055617,USA,PO Box,
92519,Riverside,CA,Riverside,33.752886,-116.055617,USA,PO Box,
92521,Riverside,CA,Riverside,33.752886,-116.055617,USA,Non-Unique,
92522,Riverside,CA,Riverside,33.752886,-116.055617,USA,Unique,
92531,Lake Elsinore,CA,Riverside,33.752886,-116.055617,USA,PO Box,
92546,Hemet,CA,Riverside,33.752886,-116.055617,USA,PO Box,
92552,Moreno Valley,CA,Riverside,33.752886,-116.055617,USA,PO Box,
92556,Moreno Valley,CA,Riverside,33.752886,-116.055617,USA,PO Box,
92564,Murrieta,CA,Riverside,33.752886,-116.055617,USA,PO Box,
92572,Perris,CA,Riverside,33.752886,-116.055617,USA,PO Box,
92581,San Jacinto,CA,Riverside,33.752886,-116.055617,USA,PO Box,
92589,Temecula,CA,Riverside,33.752886,-116.055617,USA,PO Box,
92593,Temecula,CA,Riverside,33.752886,-116.055617,USA,PO Box,
92599,Perris,CA,Riverside,33.752886,-116.055617,USA,Unique,
92877,Corona,CA,Riverside,33.752886,-116.055617,USA,PO Box,
92878,Corona,CA,Riverside,33.752886,-116.055617,USA,PO Box,
92203,Indio,CA,Riverside,33.75317,-116.26764,USA,Non-Unique,
92263,Palm Springs,CA,Riverside,33.761076,-116.535887,USA,PO Box,
92211,Palm Desert,CA,Riverside,33.76437,-116.339766,USA,Non-Unique,
92570,Perris,CA,Riverside,33.787292,-117.320674,USA,Non-Unique,
92264,Palm Springs,CA,Riverside,33.797145,-116.511883,USA,Non-Unique,
92583,San Jacinto,CA,Riverside,33.79736,-116.934097,USA,Non-Unique,
92567,Nuevo,CA,Riverside,33.80644,-117.13731,USA,Non-Unique,
92582,San Jacinto,CA,Riverside,33.806708,-117.02007,USA,Non-Unique,
92239,Desert Center,CA,Riverside,33.809041,-115.366577,USA,Non-Unique,
92234,Cathedral City,CA,Riverside,33.818256,-116.466743,USA,Non-Unique,
92881,Corona,CA,Riverside,33.827409,-117.524091,USA,Non-Unique,
92571,Perris,CA,Riverside,33.82931,-117.205481,USA,Non-Unique,
92882,Corona,CA,Riverside,33.840451,-117.601961,USA,Non-Unique,
92262,Palm Springs,CA,Riverside,33.842567,-116.527996,USA,Non-Unique,
92276,Thousand Palms,CA,Riverside,33.843837,-116.393413,USA,Non-Unique,
92241,Desert Hot Springs,CA,Riverside,33.876265,-116.354024,USA,Non-Unique,
92503,Riverside,CA,Riverside,33.882579,-117.442303,USA,Non-Unique,
92551,Moreno Valley,CA,Riverside,33.88274,-117.224878,USA,Non-Unique,
92879,Corona,CA,Riverside,33.882879,-117.5269,USA,Non-Unique,
92518,March Air Reserve Base,CA,Riverside,33.889103,-117.278368,USA,Non-Unique,
92555,Moreno Valley,CA,Riverside,33.890645,-117.112789,USA,Non-Unique,
92508,Riverside,CA,Riverside,33.891132,-117.32675,USA,Non-Unique,
92504,Riverside,CA,Riverside,33.903134,-117.398044,USA,Non-Unique,
92230,Cabazon,CA,Riverside,33.90989,-116.77596,USA,Non-Unique,
92880,Corona,CA,Riverside,33.918043,-117.617809,USA,Non-Unique,
92220,Banning,CA,Riverside,33.919215,-116.864197,USA,Non-Unique,
92258,North Palm Springs,CA,Riverside,33.92279,-116.54307,USA,PO Box,
92553,Moreno Valley,CA,Riverside,33.923386,-117.244825,USA,Non-Unique,
92860,Norco,CA,Riverside,33.925519,-117.551958,USA,Non-Unique,
92223,Beaumont,CA,Riverside,33.92703,-116.954753,USA,Non-Unique,
92506,Riverside,CA,Riverside,33.934335,-117.367319,USA,Non-Unique,
92505,Riverside,CA,Riverside,33.936193,-117.493881,USA,Non-Unique,
92282,Whitewater,CA,Riverside,33.945145,-116.649937,USA,Non-Unique,
92240,Desert Hot Springs,CA,Riverside,33.95154,-116.520104,USA,Non-Unique,
92507,Riverside,CA,Riverside,33.970847,-117.32512,USA,Non-Unique,
92557,Moreno Valley,CA,Riverside,33.97216,-117.258448,USA,Non-Unique,
92320,Calimesa,CA,Riverside,33.976814,-117.038262,USA,Non-Unique,
91752,Mira Loma,CA,Riverside,33.98549,-117.51472,USA,Non-Unique,
92501,Riverside,CA,Riverside,33.99504,-117.373184,USA,Non-Unique,
92509,Jurupa Valley,CA,Riverside,34.003029,-117.442161,USA,Non-Unique,
95641,Isleton,CA,Sacramento,38.16186,-121.61162,USA,Non-Unique,
95680,Ryde,CA,Sacramento,38.240419,-121.587535,USA,PO Box,
95690,Walnut Grove,CA,Sacramento,38.2559,-121.50835,USA,Non-Unique,
95632,Galt,CA,Sacramento,38.289817,-121.313883,USA,Non-Unique,
95638,Herald,CA,Sacramento,38.320561,-121.154808,USA,Non-Unique,
95615,Courtland,CA,Sacramento,38.338322,-121.5378,USA,Non-Unique,
95639,Hood,CA,Sacramento,38.36824,-121.51745,USA,PO Box,
94204,Sacramento,CA,Sacramento,38.377411,-121.444429,USA,PO Box,
94205,Sacramento,CA,Sacramento,38.377411,-121.444429,USA,PO Box,
94206,Sacramento,CA,Sacramento,38.377411,-121.444429,USA,PO Box,
94207,Sacramento,CA,Sacramento,38.377411,-121.444429,USA,PO Box,
94208,Sacramento,CA,Sacramento,38.377411,-121.444429,USA,PO Box,
94209,Sacramento,CA,Sacramento,38.377411,-121.444429,USA,PO Box,
94211,Sacramento,CA,Sacramento,38.377411,-121.444429,USA,PO Box,
94229,Sacramento,CA,Sacramento,38.377411,-121.444429,USA,PO Box,
94230,Sacramento,CA,Sacramento,38.377411,-121.444429,USA,PO Box,
94232,Sacramento,CA,Sacramento,38.377411,-121.444429,USA,PO Box,
94234,Sacramento,CA,Sacramento,38.377411,-121.444429,USA,PO Box,
94235,Sacramento,CA,Sacramento,38.377411,-121.444429,USA,PO Box,
94236,Sacramento,CA,Sacramento,38.377411,-121.444429,USA,PO Box,
94237,Sacramento,CA,Sacramento,38.377411,-121.444429,USA,PO Box,
94239,Sacramento,CA,Sacramento,38.377411,-121.444429,USA,PO Box,
94240,Sacramento,CA,Sacramento,38.377411,-121.444429,USA,PO Box,
94244,Sacramento,CA,Sacramento,38.377411,-121.444429,USA,PO Box,
94245,Sacramento,CA,Sacramento,38.377411,-121.444429,USA,PO Box,
94246,Sacramento,CA,Sacramento,38.377411,-121.444429,USA,PO Box,
94247,Sacramento,CA,Sacramento,38.377411,-121.444429,USA,PO Box,
94248,Sacramento,CA,Sacramento,38.377411,-121.444429,USA,PO Box,
94249,Sacramento,CA,Sacramento,38.377411,-121.444429,USA,PO Box,
94250,Sacramento,CA,Sacramento,38.377411,-121.444429,USA,PO Box,
94252,Sacramento,CA,Sacramento,38.377411,-121.444429,USA,PO Box,
94254,Sacramento,CA,Sacramento,38.377411,-121.444429,USA,PO Box,
94256,Sacramento,CA,Sacramento,38.377411,-121.444429,USA,PO Box,
94257,Sacramento,CA,Sacramento,38.377411,-121.444429,USA,PO Box,
